"address","zipCode","city","state","price","bed","bath","sqft","pricePerSf","lotArea","lotAreaType","dateSold","dateSoldNumeric","zillowUrl","latitude","longitude","homeType","zestimate","rentZestimate","imageUrl"
"1432 Valley High Ave, Thousand Oaks, CA 91362","91362","Thousand Oaks","CA","1299000","4","4","2911","446.24","0.3591368227731864","acres","9/5/2024","1725519600000","https://zillow.com/homedetails/1432-Valley-High-Ave-Thousand-Oaks-CA-91362/16483010_zpid/","34.19745","-118.84327","SINGLE_FAMILY","1290900","7211","https://photos.zillowstatic.com/fp/e409c1a9410aefb6cb115095a91e85c8-p_e.jpg"
"3063 E Hillcrest Dr, Thousand Oaks, CA 91362","91362","Thousand Oaks","CA","760000","3","3","1547","491.27","1547","sqft","9/4/2024","1725433200000","https://zillow.com/homedetails/3063-E-Hillcrest-Dr-Thousand-Oaks-CA-91362/16484452_zpid/","34.17253","-118.83224","TOWNHOUSE","820000","3911","https://photos.zillowstatic.com/fp/6dd8af16b7666888986fe4a9225426c5-p_e.jpg"
"4787 Windhaven Dr, Thousand Oaks, CA 91362","91362","Thousand Oaks","CA","11971800","6","13","16702","716.79","4.77","acres","9/3/2024","1725346800000","https://zillow.com/homedetails/4787-Windhaven-Dr-Thousand-Oaks-CA-91362/72653264_zpid/","34.175213","-118.80676","SINGLE_FAMILY","","8371","https://photos.zillowstatic.com/fp/78145b79f482cef74c142d1ec8646eab-p_e.jpg"
"2222 Park Pl, Thousand Oaks, CA 91362","91362","Thousand Oaks","CA","1490000","3","3","1838","810.66","9836","sqft","8/30/2024","1725001200000","https://zillow.com/homedetails/2222-Park-Pl-Thousand-Oaks-CA-91362/16429930_zpid/","34.21075","-118.83631","SINGLE_FAMILY","1491200","5211","https://photos.zillowstatic.com/fp/82396703e97582d9efc5cfd6f3d0e7fe-p_e.jpg"
"1352 Morrow Cir, Thousand Oaks, CA 91362","91362","Thousand Oaks","CA","970000","3","3","2604","372.5","0.33512396694214874","acres","8/30/2024","1725001200000","https://zillow.com/homedetails/1352-Morrow-Cir-Thousand-Oaks-CA-91362/16483144_zpid/","34.19684","-118.84144","SINGLE_FAMILY","970100","6318","https://photos.zillowstatic.com/fp/970654142282c7d308f0f520b3304f9e-p_e.jpg"
"1449 Doral Cir, Thousand Oaks, CA 91362","91362","Thousand Oaks","CA","2900000","4","6","4256","681.39","0.55","acres","8/30/2024","1725001200000","https://zillow.com/homedetails/1449-Doral-Cir-Thousand-Oaks-CA-91362/16489645_zpid/","34.190685","-118.80472","SINGLE_FAMILY","2950700","12081","https://photos.zillowstatic.com/fp/951ea2dfd2f7f97f74495e7b2a3eb545-p_e.jpg"
"120 Apache Cir, Thousand Oaks, CA 91362","91362","Thousand Oaks","CA","163000","2","2","1440","113.19","","","8/30/2024","1725001200000","https://zillow.com/homedetails/120-Apache-Cir-Thousand-Oaks-CA-91362/402298500_zpid/","34.170887","-118.84289","MANUFACTURED","163000","","https://photos.zillowstatic.com/fp/e0b6eca21b0f9efec2aed65a178aaf66-p_e.jpg"
"2565 Picadilly Cir, Thousand Oaks, CA 91362","91362","Thousand Oaks","CA","1620000","5","3","3014","537.49","9666","sqft","8/28/2024","1724828400000","https://zillow.com/homedetails/2565-Picadilly-Cir-Thousand-Oaks-CA-91362/16432967_zpid/","34.218143","-118.830826","SINGLE_FAMILY","1620300","7216","https://photos.zillowstatic.com/fp/8b20316226126e27443f5bdfbb9f258d-p_e.jpg"
"1723 La Granada Dr, Thousand Oaks, CA 91362","91362","Thousand Oaks","CA","1635000","5","3","2524","647.78","0.5171946740128558","acres","8/28/2024","1724828400000","https://zillow.com/homedetails/1723-La-Granada-Dr-Thousand-Oaks-CA-91362/16482811_zpid/","34.19344","-118.84763","SINGLE_FAMILY","1635300","6505","https://photos.zillowstatic.com/fp/8487478c29d4efe08b60eb672a68bf36-p_e.jpg"
"3355 S Blue Ridge Ct, Westlake Village, CA 91362","91362","Westlake Village","CA","1270000","4","3","2611","486.4","7265","sqft","8/28/2024","1724828400000","https://zillow.com/homedetails/3355-S-Blue-Ridge-Ct-Westlake-Village-CA-91362/16484220_zpid/","34.166653","-118.828926","SINGLE_FAMILY","1270200","6774","https://photos.zillowstatic.com/fp/0faf8a0cb6b621dd949085829a3e76e1-p_e.jpg"
"327 Westlake Vista Ln, Thousand Oaks, CA 91362","91362","Thousand Oaks","CA","939500","3","3","1901","494.21","1901","sqft","8/28/2024","1724828400000","https://zillow.com/homedetails/327-Westlake-Vista-Ln-Thousand-Oaks-CA-91362/54900382_zpid/","34.175686","-118.8373","TOWNHOUSE","939700","4183","https://photos.zillowstatic.com/fp/546e325b2b4347191b6fed0c8eddc6b3-p_e.jpg"
"2341 Hood Dr, Thousand Oaks, CA 91362","91362","Thousand Oaks","CA","1600000","4","3","2592","617.28","0.3925619834710744","acres","8/27/2024","1724742000000","https://zillow.com/homedetails/2341-Hood-Dr-Thousand-Oaks-CA-91362/16483230_zpid/","34.18933","-118.838646","SINGLE_FAMILY","1600300","6627","https://photos.zillowstatic.com/fp/1096efaf3afb8b977323a654af5a4b3e-p_e.jpg"
"2479 Chaucer Pl, Thousand Oaks, CA 91362","91362","Thousand Oaks","CA","1575000","4","3","2673","589.23","9411","sqft","8/26/2024","1724655600000","https://zillow.com/homedetails/2479-Chaucer-Pl-Thousand-Oaks-CA-91362/23725611_zpid/","34.21329","-118.83287","SINGLE_FAMILY","1575400","6435","https://photos.zillowstatic.com/fp/06711294eb58c583649eec4a88d093b4-p_e.jpg"
"2686 Dorado Ct, Thousand Oaks, CA 91362","91362","Thousand Oaks","CA","1250000","3","3","2109","592.7","4280","sqft","8/23/2024","1724396400000","https://zillow.com/homedetails/2686-Dorado-Ct-Thousand-Oaks-CA-91362/16430495_zpid/","34.21543","-118.82033","SINGLE_FAMILY","1250000","4773","https://photos.zillowstatic.com/fp/d1e89a1fe44d122387051d3855b9a21b-p_e.jpg"
"883 N Via Colinas, Westlake Village, CA 91362","91362","Westlake Village","CA","800000","3","3","1435","557.49","1433.124","sqft","8/23/2024","1724396400000","https://zillow.com/homedetails/883-N-Via-Colinas-Westlake-Village-CA-91362/16488526_zpid/","34.16312","-118.808266","CONDO","799100","4172","https://photos.zillowstatic.com/fp/84562aa3190a36045a8c9b2f9008ed0b-p_e.jpg"
"4742 Club View Dr, Thousand Oaks, CA 91362","91362","Thousand Oaks","CA","1049000","2","3","1850","567.03","1804","sqft","8/22/2024","1724310000000","https://zillow.com/homedetails/4742-Club-View-Dr-Thousand-Oaks-CA-91362/16489789_zpid/","34.19114","-118.809","TOWNHOUSE","1049000","4237","https://photos.zillowstatic.com/fp/0916e18f710f79c76c2b4cbb1f4a3f3e-p_e.jpg"
"50 Maegan Pl APT 3, Thousand Oaks, CA 91362","91362","Thousand Oaks","CA","476000","2","2","830","573.49","","","8/20/2024","1724137200000","https://zillow.com/homedetails/50-Maegan-Pl-APT-3-Thousand-Oaks-CA-91362/16477086_zpid/","34.17905","-118.85229","CONDO","476000","2692","https://photos.zillowstatic.com/fp/4b194e0d34462b54725ef1187a8cedcc-p_e.jpg"
"2517 Renata Ct, Thousand Oaks, CA 91362","91362","Thousand Oaks","CA","1275000","4","3","2259","564.41","7415","sqft","8/19/2024","1724050800000","https://zillow.com/homedetails/2517-Renata-Ct-Thousand-Oaks-CA-91362/16430598_zpid/","34.2129","-118.82272","SINGLE_FAMILY","1275200","5945","https://photos.zillowstatic.com/fp/289d7f47dd0f9e05c50ade0acd5f4972-p_e.jpg"
"2190 Sonoma Ct, Thousand Oaks, CA 91362","91362","Thousand Oaks","CA","638900","3","2","1152","554.6","3920","sqft","8/16/2024","1723791600000","https://zillow.com/homedetails/2190-Sonoma-Ct-Thousand-Oaks-CA-91362/16431460_zpid/","34.208775","-118.84416","CONDO","638900","3763","https://photos.zillowstatic.com/fp/9ec2f3e9b0ec6d2e2a609726ffb1d42f-p_e.jpg"
"2360 Solway Ct, Thousand Oaks, CA 91362","91362","Thousand Oaks","CA","1250000","4","3","2394","522.14","5707","sqft","8/16/2024","1723791600000","https://zillow.com/homedetails/2360-Solway-Ct-Thousand-Oaks-CA-91362/16433173_zpid/","34.21914","-118.83482","SINGLE_FAMILY","1250300","5129","https://photos.zillowstatic.com/fp/afe2e5cc6282c87b1f2f8be791e12117-p_e.jpg"
"955 Emerson St, Thousand Oaks, CA 91362","91362","Thousand Oaks","CA","1475000","3","2","1776","830.52","0.27299999999999996","acres","8/16/2024","1723791600000","https://zillow.com/homedetails/955-Emerson-St-Thousand-Oaks-CA-91362/16483280_zpid/","34.189888","-118.84316","SINGLE_FAMILY","1475300","4767","https://photos.zillowstatic.com/fp/e25b404a3f2ce65324c40ca4d1acc73d-p_e.jpg"
"3015 E Sierra Dr, Thousand Oaks, CA 91362","91362","Thousand Oaks","CA","1250000","3","2","2087","598.95","7400","sqft","8/16/2024","1723791600000","https://zillow.com/homedetails/3015-E-Sierra-Dr-Thousand-Oaks-CA-91362/16483844_zpid/","34.169025","-118.82267","SINGLE_FAMILY","1250100","4934","https://photos.zillowstatic.com/fp/7b93404bffb79d826d6711a23ed5ef63-p_e.jpg"
"3064 Ferncrest Pl, Thousand Oaks, CA 91362","91362","Thousand Oaks","CA","1210000","4","3","2902","416.95","2902","sqft","8/16/2024","1723791600000","https://zillow.com/homedetails/3064-Ferncrest-Pl-Thousand-Oaks-CA-91362/52465552_zpid/","34.218018","-118.81984","SINGLE_FAMILY","1210300","5558","https://photos.zillowstatic.com/fp/06fffa264ea820542dd4f384292ea3b6-p_e.jpg"
"3331 Holly Grove St, Thousand Oaks, CA 91362","91362","Thousand Oaks","CA","720000","3","3","1280","562.5","1280","sqft","8/15/2024","1723705200000","https://zillow.com/homedetails/3331-Holly-Grove-St-Thousand-Oaks-CA-91362/16477859_zpid/","34.165565","-118.834785","TOWNHOUSE","720100","3703","https://photos.zillowstatic.com/fp/c0672379bf080c4a991e3475d61d3fe3-p_e.jpg"
"1074 Terrace Hill Cir, Westlake Village, CA 91362","91362","Westlake Village","CA","1415000","4","3","2512","563.3","2512","sqft","8/15/2024","1723705200000","https://zillow.com/homedetails/1074-Terrace-Hill-Cir-Westlake-Village-CA-91362/16489098_zpid/","34.182926","-118.787254","TOWNHOUSE","1415200","5625","https://photos.zillowstatic.com/fp/4d82a7f599349cf321ded8fd779c35d4-p_e.jpg"
"2637 Dorado Ct, Thousand Oaks, CA 91362","91362","Thousand Oaks","CA","1099000","4","3","2109","521.1","3218","sqft","8/14/2024","1723618800000","https://zillow.com/homedetails/2637-Dorado-Ct-Thousand-Oaks-CA-91362/16430483_zpid/","34.214844","-118.82113","SINGLE_FAMILY","1099300","4851","https://photos.zillowstatic.com/fp/5d6985363f65af2a2e56dffb4c278d6f-p_e.jpg"
"5643 Hazelcrest Cir, Thousand Oaks, CA 91362","91362","Thousand Oaks","CA","1369000","3","2","2137","640.62","9071","sqft","8/13/2024","1723532400000","https://zillow.com/homedetails/5643-Hazelcrest-Cir-Thousand-Oaks-CA-91362/16488766_zpid/","34.175068","-118.79028","SINGLE_FAMILY","1370600","5596","https://photos.zillowstatic.com/fp/715076ca8fe82c608ace2996ffcb1fdc-p_e.jpg"
"5516 Grey Feather Ct, Thousand Oaks, CA 91362","91362","Thousand Oaks","CA","3310000","5","5","3400","973.53","0.6299816345270891","acres","8/12/2024","1723446000000","https://zillow.com/homedetails/5516-Grey-Feather-Ct-Thousand-Oaks-CA-91362/16488908_zpid/","34.195683","-118.79325","SINGLE_FAMILY","3311500","12331","https://photos.zillowstatic.com/fp/a060b45982e0d0bce792edd7fee4c14b-p_e.jpg"
"1803 Orinda Ct, Thousand Oaks, CA 91362","91362","Thousand Oaks","CA","640000","3","2","1152","555.56","3920","sqft","8/9/2024","1723186800000","https://zillow.com/homedetails/1803-Orinda-Ct-Thousand-Oaks-CA-91362/16431400_zpid/","34.208748","-118.84577","SINGLE_FAMILY","640100","3733","https://photos.zillowstatic.com/fp/52f0ea680cf45934a02143bfe99daf89-p_e.jpg"
"2954 Rob Ct, Thousand Oaks, CA 91362","91362","Thousand Oaks","CA","1275000","4","3","2097","608.01","7534","sqft","8/9/2024","1723186800000","https://zillow.com/homedetails/2954-Rob-Ct-Thousand-Oaks-CA-91362/16432197_zpid/","34.21919","-118.83897","SINGLE_FAMILY","1275100","5277","https://photos.zillowstatic.com/fp/73d8d2a6ffc4d3a348c299bb8d9ffd6a-p_e.jpg"
"3195 Royal Oaks Dr, Thousand Oaks, CA 91362","91362","Thousand Oaks","CA","2246160","9","9","5299","423.88","0.25068870523415976","acres","8/9/2024","1723186800000","https://zillow.com/homedetails/3195-Royal-Oaks-Dr-Thousand-Oaks-CA-91362/16477454_zpid/","34.166843","-118.83626","MULTI_FAMILY","2246400","4671","https://photos.zillowstatic.com/fp/73e037787b2e9e47ae791a828727a3c2-p_e.jpg"
"1408 N View Dr, Westlake Village, CA 91362","91362","Westlake Village","CA","1126000","3","3","2238","503.13","2238","sqft","8/9/2024","1723186800000","https://zillow.com/homedetails/1408-N-View-Dr-Westlake-Village-CA-91362/16489823_zpid/","34.19022","-118.80855","TOWNHOUSE","1173500","5223","https://photos.zillowstatic.com/fp/9ef60c8918f591c2827899e73d854468-p_e.jpg"
"2181 Olivewood Dr, Thousand Oaks, CA 91362","91362","Thousand Oaks","CA","687000","2","2","1217","564.5","2859","sqft","8/8/2024","1723100400000","https://zillow.com/homedetails/2181-Olivewood-Dr-Thousand-Oaks-CA-91362/16431893_zpid/","34.20852","-118.84305","TOWNHOUSE","692900","3589","https://photos.zillowstatic.com/fp/907d7349c26dcef33223025fe07d4564-p_e.jpg"
"2922 Morningside Dr, Thousand Oaks, CA 91362","91362","Thousand Oaks","CA","890000","3","2","1360","654.41","7012","sqft","8/6/2024","1722927600000","https://zillow.com/homedetails/2922-Morningside-Dr-Thousand-Oaks-CA-91362/16431133_zpid/","34.217854","-118.842766","SINGLE_FAMILY","890200","3835","https://photos.zillowstatic.com/fp/64eec74c037f4b71ad998fc553995c31-p_e.jpg"
"2040 Birchdale Ct, Thousand Oaks, CA 91362","91362","Thousand Oaks","CA","721000","2","2","1128","639.18","2865","sqft","8/6/2024","1722927600000","https://zillow.com/homedetails/2040-Birchdale-Ct-Thousand-Oaks-CA-91362/16431966_zpid/","34.208256","-118.84123","TOWNHOUSE","721200","3421","https://photos.zillowstatic.com/fp/282adc4224f7578d612403351b1752c3-p_e.jpg"
"756 N Via Colinas, Westlake Village, CA 91362","91362","Westlake Village","CA","715000","2","3","1251","571.54","1251","sqft","8/6/2024","1722927600000","https://zillow.com/homedetails/756-N-Via-Colinas-Westlake-Village-CA-91362/16488485_zpid/","34.16511","-118.808044","TOWNHOUSE","715200","3856","https://photos.zillowstatic.com/fp/eac733fb798ee030b44a33d76e42c707-p_e.jpg"
"5735 Ingram Pl, Westlake Village, CA 91362","91362","Westlake Village","CA","1387000","3","3","2303","602.26","","","8/1/2024","1722495600000","https://zillow.com/homedetails/5735-Ingram-Pl-Westlake-Village-CA-91362/16489114_zpid/","34.181335","-118.7882","TOWNHOUSE","1387200","5349","https://photos.zillowstatic.com/fp/abb8b2d928e55e8d39dd0f3ca7bfe154-p_e.jpg"
"2402 Pleasant Way UNIT F, Thousand Oaks, CA 91362","91362","Thousand Oaks","CA","408750","1","1","722","566.14","722","sqft","7/31/2024","1722409200000","https://zillow.com/homedetails/2402-Pleasant-Way-UNIT-F-Thousand-Oaks-CA-91362/16477698_zpid/","34.172638","-118.84414","CONDO","408800","2462","https://photos.zillowstatic.com/fp/10dea14ec7702586fccc23e4e8c3b111-p_e.jpg"
"4859 Windhaven Dr, Thousand Oaks, CA 91362","91362","Thousand Oaks","CA","5600000","5","6","6670","839.58","1.35","acres","7/31/2024","1722409200000","https://zillow.com/homedetails/4859-Windhaven-Dr-Thousand-Oaks-CA-91362/16484314_zpid/","34.174694","-118.80587","SINGLE_FAMILY","5613300","21663","https://photos.zillowstatic.com/fp/3d73a585571fa5a6827d33deae56a60d-p_e.jpg"
"3399 Crossland St, Thousand Oaks, CA 91362","91362","Thousand Oaks","CA","1520000","4","3","2983","509.55","7561","sqft","7/30/2024","1722322800000","https://zillow.com/homedetails/3399-Crossland-St-Thousand-Oaks-CA-91362/16430291_zpid/","34.2157","-118.81342","SINGLE_FAMILY","1520200","5790","https://photos.zillowstatic.com/fp/bf4f6a3500a9cad4d34d562a591424b6-p_e.jpg"
"1965 Daylight Ct, Thousand Oaks, CA 91362","91362","Thousand Oaks","CA","1750000","5","3","3079","568.37","9992","sqft","7/30/2024","1722322800000","https://zillow.com/homedetails/1965-Daylight-Ct-Thousand-Oaks-CA-91362/16436781_zpid/","34.230537","-118.84292","SINGLE_FAMILY","1749300","7577","https://photos.zillowstatic.com/fp/7819525ae308348ad7234daeb55577a2-p_e.jpg"
"3958 Cresthaven Dr, Westlake Village, CA 91362","91362","Westlake Village","CA","2444062","5","4","4181","584.56","0.46999540863177225","acres","7/30/2024","1722322800000","https://zillow.com/homedetails/3958-Cresthaven-Dr-Westlake-Village-CA-91362/16489237_zpid/","34.181152","-118.82242","SINGLE_FAMILY","2444900","8911","https://photos.zillowstatic.com/fp/f7fcad0ec7da2798557cc69704ea0e8f-p_e.jpg"
"1695 Miller Ranch Dr, Thousand Oaks, CA 91362","91362","Thousand Oaks","CA","6500000","6","8","6245","1040.83","1.09","acres","7/30/2024","1722322800000","https://zillow.com/homedetails/1695-Miller-Ranch-Dr-Thousand-Oaks-CA-91362/337907876_zpid/","34.20037","-118.817406","SINGLE_FAMILY","6500900","8745","https://photos.zillowstatic.com/fp/1dbee2b4fed67301dadc3d4b4eb5c325-p_e.jpg"
"1635 Charterwood Ct #121, Thousand Oaks, CA 91362","91362","Thousand Oaks","CA","500000","2","1","855","584.8","853.776","sqft","7/30/2024","1722322800000","https://zillow.com/homedetails/1635-Charterwood-Ct-121-Thousand-Oaks-CA-91362/2079793063_zpid/","34.17922","-118.85067","CONDO","500100","2729","https://photos.zillowstatic.com/fp/93653aa1806915761fb4b9ba0aab9bc5-p_e.jpg"
"3238 Futura Point, Thousand Oaks, CA 91362","91362","Thousand Oaks","CA","1312000","4","3","2954","444.14","9038.7","sqft","7/29/2024","1722236400000","https://zillow.com/homedetails/3238-Futura-Point-Thousand-Oaks-CA-91362/16432400_zpid/","34.223206","-118.841576","SINGLE_FAMILY","1341000","6032","https://photos.zillowstatic.com/fp/535f622b0bb580f39ca349d9f6a3082b-p_e.jpg"
"5607 S Rim St, Westlake Village, CA 91362","91362","Westlake Village","CA","2775000","5","5","4921","563.91","1.17","acres","7/29/2024","1722236400000","https://zillow.com/homedetails/5607-S-Rim-St-Westlake-Village-CA-91362/16487708_zpid/","34.18942","-118.79143","SINGLE_FAMILY","2775800","10746","https://photos.zillowstatic.com/fp/84cde0c7feaf8d75e26bcd23d8f4f028-p_e.jpg"
"1635 Charterwood Ct, Thousand Oaks, CA 91362","91362","Thousand Oaks","CA","500000","2","1","855","584.8","785","sqft","7/26/2024","1721977200000","https://zillow.com/homedetails/1635-Charterwood-Ct-Thousand-Oaks-CA-91362/16477053_zpid/","34.179203","-118.85065","CONDO","501000","2729","https://photos.zillowstatic.com/fp/2362642b0b3b9085b89d78d7b4d7c495-p_e.jpg"
"634 N Via Colinas, Westlake Village, CA 91362","91362","Westlake Village","CA","640000","2","2","1153","555.07","","","7/26/2024","1721977200000","https://zillow.com/homedetails/634-N-Via-Colinas-Westlake-Village-CA-91362/16488342_zpid/","34.164757","-118.806145","CONDO","640200","3637","https://photos.zillowstatic.com/fp/40dba28d32a10df78ec12bd69de1d234-p_e.jpg"
"791 N Via Colinas, Westlake Village, CA 91362","91362","Westlake Village","CA","850000","3","3","1435","592.33","1435","sqft","7/26/2024","1721977200000","https://zillow.com/homedetails/791-N-Via-Colinas-Westlake-Village-CA-91362/16488466_zpid/","34.164196","-118.80848","CONDO","850300","4172","https://photos.zillowstatic.com/fp/84ce5c10591e31feb055f27f9b411d08-p_e.jpg"
"2823 Sandhurst Ave, Thousand Oaks, CA 91362","91362","Thousand Oaks","CA","1286000","4","2","1975","651.14","6534","sqft","7/25/2024","1721890800000","https://zillow.com/homedetails/2823-Sandhurst-Ave-Thousand-Oaks-CA-91362/16433077_zpid/","34.218143","-118.83527","SINGLE_FAMILY","1286000","5190","https://photos.zillowstatic.com/fp/aa3d845f6dfb1e42598a461b26b7eb5d-p_e.jpg"
"2118 Sapra St, Thousand Oaks, CA 91362","91362","Thousand Oaks","CA","1204500","4","4","2381","505.88","0.3271349862258953","acres","7/24/2024","1721804400000","https://zillow.com/homedetails/2118-Sapra-St-Thousand-Oaks-CA-91362/16483127_zpid/","34.19895","-118.84016","SINGLE_FAMILY","1204900","5858","https://photos.zillowstatic.com/fp/b127a5e74558ab84f7e126e468809cca-p_e.jpg"
"1529 Falling Star Ave, Westlake Village, CA 91362","91362","Westlake Village","CA","2900000","5","5","4888","593.29","0.47176308539944906","acres","7/24/2024","1721804400000","https://zillow.com/homedetails/1529-Falling-Star-Ave-Westlake-Village-CA-91362/16487771_zpid/","34.1916","-118.78628","SINGLE_FAMILY","","12617","https://photos.zillowstatic.com/fp/a7de4626e35e1648f1d531d7faf6d450-p_e.jpg"
"2906 Rob Ct, Thousand Oaks, CA 91362","91362","Thousand Oaks","CA","1295000","4","3","2429","533.14","0.2699954086317723","acres","7/23/2024","1721718000000","https://zillow.com/homedetails/2906-Rob-Ct-Thousand-Oaks-CA-91362/16432201_zpid/","34.218586","-118.83906","SINGLE_FAMILY","1295200","5698","https://photos.zillowstatic.com/fp/4744dbb2634e209a93318ab5ebf2c63d-p_e.jpg"
"510 N Via Colinas, Westlake Village, CA 91362","91362","Westlake Village","CA","649000","2","2","1153","562.88","1153","sqft","7/23/2024","1721718000000","https://zillow.com/homedetails/510-N-Via-Colinas-Westlake-Village-CA-91362/16488224_zpid/","34.163452","-118.80656","TOWNHOUSE","649700","3806","https://photos.zillowstatic.com/fp/c9cdd22f623b060435c0cc81bd8fdcbe-p_e.jpg"
"2484 E Hillcrest Dr, Thousand Oaks, CA 91362","91362","Thousand Oaks","CA","790000","2","3","1300","607.69","5045","sqft","7/19/2024","1721372400000","https://zillow.com/homedetails/2484-E-Hillcrest-Dr-Thousand-Oaks-CA-91362/16477389_zpid/","34.176373","-118.839","SINGLE_FAMILY","791300","3497","https://photos.zillowstatic.com/fp/fd2766e9a4f60a2a0ec6adf59437c4cd-p_e.jpg"
"3258 N Allegheny Ct, Thousand Oaks, CA 91362","91362","Thousand Oaks","CA","1575000","6","5","3610","436.29","7400","sqft","7/19/2024","1721372400000","https://zillow.com/homedetails/3258-N-Allegheny-Ct-Thousand-Oaks-CA-91362/16484132_zpid/","34.16946","-118.82936","SINGLE_FAMILY","1578000","9750","https://photos.zillowstatic.com/fp/6b6b722ccc7b8edc0988b9f22efe0132-p_e.jpg"
"4963 Summit View Dr, Thousand Oaks, CA 91362","91362","Thousand Oaks","CA","6975000","5","7","8783","794.15","1.15","acres","7/19/2024","1721372400000","https://zillow.com/homedetails/4963-Summit-View-Dr-Thousand-Oaks-CA-91362/16484389_zpid/","34.18021","-118.80388","SINGLE_FAMILY","6974200","26954","https://photos.zillowstatic.com/fp/b805644e902101de46866bbf4e889f08-p_e.jpg"
"3258 Allegheny Ct, Westlake Village, CA 91362","91362","Westlake Village","CA","1575000","6","5","3310","475.83","7400","sqft","7/19/2024","1721372400000","https://zillow.com/homedetails/3258-Allegheny-Ct-Westlake-Village-CA-91362/2067239788_zpid/","34.16951","-118.82966","SINGLE_FAMILY","1576400","9188","https://photos.zillowstatic.com/fp/32d7def4cba25e29a617327b4fa47e18-p_e.jpg"
"1818 La Granada Dr, Thousand Oaks, CA 91362","91362","Thousand Oaks","CA","1075000","3","2","1633","658.3","10148","sqft","7/18/2024","1721286000000","https://zillow.com/homedetails/1818-La-Granada-Dr-Thousand-Oaks-CA-91362/16482965_zpid/","34.19441","-118.84493","SINGLE_FAMILY","1074900","4391","https://photos.zillowstatic.com/fp/5fabde297d46036e0832653895e4aa3c-p_e.jpg"
"1081 Westcreek Ln, Westlake Village, CA 91362","91362","Westlake Village","CA","1100000","3","3","2113","520.59","","","7/18/2024","1721286000000","https://zillow.com/homedetails/1081-Westcreek-Ln-Westlake-Village-CA-91362/16489069_zpid/","34.182762","-118.78855","TOWNHOUSE","1156800","5143","https://photos.zillowstatic.com/fp/735a41fc900f2109eb7a8d7f03df374a-p_e.jpg"
"2444 Rikkard Dr, Thousand Oaks, CA 91362","91362","Thousand Oaks","CA","1255900","4","3","2180","576.1","7841","sqft","7/17/2024","1721199600000","https://zillow.com/homedetails/2444-Rikkard-Dr-Thousand-Oaks-CA-91362/16432793_zpid/","34.21286","-118.83696","SINGLE_FAMILY","1255800","5467","https://photos.zillowstatic.com/fp/040d8831d1aef38a14ebcdc22282bf20-p_e.jpg"
"3535 Indian Ridge Cir, Thousand Oaks, CA 91362","91362","Thousand Oaks","CA","1850000","4","3","3243","570.46","10349","sqft","7/12/2024","1720767600000","https://zillow.com/homedetails/3535-Indian-Ridge-Cir-Thousand-Oaks-CA-91362/16430233_zpid/","34.216515","-118.81064","SINGLE_FAMILY","1849700","7583","https://photos.zillowstatic.com/fp/b3c0609378daee4eb9983547444aaba7-p_e.jpg"
"1848 Cannes Dr, Thousand Oaks, CA 91362","91362","Thousand Oaks","CA","1570000","5","4","3354","468.1","9853","sqft","7/12/2024","1720767600000","https://zillow.com/homedetails/1848-Cannes-Dr-Thousand-Oaks-CA-91362/16432610_zpid/","34.220905","-118.844826","SINGLE_FAMILY","1573300","6954","https://photos.zillowstatic.com/fp/63e42198b5158745e7a05e55097f3a4e-p_e.jpg"
"3209 N Blue Ridge Ct, Westlake Village, CA 91362","91362","Westlake Village","CA","1405000","5","3","2637","532.8","7089","sqft","7/12/2024","1720767600000","https://zillow.com/homedetails/3209-N-Blue-Ridge-Ct-Westlake-Village-CA-91362/16484037_zpid/","34.17073","-118.82876","SINGLE_FAMILY","1406900","6851","https://photos.zillowstatic.com/fp/4dbbfa33f59c835bdfbcec20952a4c16-p_e.jpg"
"3014 Eagles Claw Ave, Thousand Oaks, CA 91362","91362","Thousand Oaks","CA","1260000","3","3","2632","478.72","2632","sqft","7/11/2024","1720681200000","https://zillow.com/homedetails/3014-Eagles-Claw-Ave-Thousand-Oaks-CA-91362/54900007_zpid/","34.220383","-118.82412","SINGLE_FAMILY","1259800","5968","https://photos.zillowstatic.com/fp/ed06c7f4bd4558221d5447418c85eac7-p_e.jpg"
"366 N Via Colinas, Westlake Village, CA 91362","91362","Westlake Village","CA","815000","3","3","1332","611.86","1332","sqft","7/9/2024","1720508400000","https://zillow.com/homedetails/366-N-Via-Colinas-Westlake-Village-CA-91362/16488163_zpid/","34.1618","-118.807014","TOWNHOUSE","817300","4256","https://photos.zillowstatic.com/fp/decfaeea103707458fb63b24276e21a6-p_e.jpg"
"2716 Autumn Ridge Dr, Thousand Oaks, CA 91362","91362","Thousand Oaks","CA","1373000","4","3","2679","512.5","9732","sqft","7/8/2024","1720422000000","https://zillow.com/homedetails/2716-Autumn-Ridge-Dr-Thousand-Oaks-CA-91362/16430271_zpid/","34.21609","-118.81305","SINGLE_FAMILY","1376900","5549","https://photos.zillowstatic.com/fp/91fd29eec77f50428e9be29b85a7b952-p_e.jpg"
"5705 Tanner Ridge Ave, Westlake Village, CA 91362","91362","Westlake Village","CA","1165000","3","3","2366","492.39","2267","sqft","7/8/2024","1720422000000","https://zillow.com/homedetails/5705-Tanner-Ridge-Ave-Westlake-Village-CA-91362/16488433_zpid/","34.17757","-118.78872","TOWNHOUSE","1168300","5377","https://photos.zillowstatic.com/fp/05cb77a81200ed1c7bc1bca9578a14fe-p_e.jpg"
"2397 Laurelpark Ct, Thousand Oaks, CA 91362","91362","Thousand Oaks","CA","1150000","4","3","2050","560.98","6620","sqft","7/5/2024","1720162800000","https://zillow.com/homedetails/2397-Laurelpark-Ct-Thousand-Oaks-CA-91362/16430015_zpid/","34.21094","-118.83435","SINGLE_FAMILY","1153500","5635","https://photos.zillowstatic.com/fp/2dd4e9eedb972ed3322c19d3e6261d2d-p_e.jpg"
"86 Maegan Pl APT 6, Thousand Oaks, CA 91362","91362","Thousand Oaks","CA","550000","2","3","975","564.1","975","sqft","7/5/2024","1720162800000","https://zillow.com/homedetails/86-Maegan-Pl-APT-6-Thousand-Oaks-CA-91362/16477147_zpid/","34.17997","-118.85221","CONDO","551700","2858","https://photos.zillowstatic.com/fp/3ec5a301c84e4d963fb50db840987e31-p_e.jpg"
"953 Valley High Ave, Thousand Oaks, CA 91362","91362","Thousand Oaks","CA","1040000","3","2","1633","636.86","10020","sqft","7/3/2024","1719990000000","https://zillow.com/homedetails/953-Valley-High-Ave-Thousand-Oaks-CA-91362/16482867_zpid/","34.19036","-118.847046","SINGLE_FAMILY","","4583","https://photos.zillowstatic.com/fp/e267c740252e92eba90ee07aaa56dec0-p_e.jpg"
"639 N Via Colinas, Westlake Village, CA 91362","91362","Westlake Village","CA","600000","2","2","1153","520.38","1153","sqft","7/3/2024","1719990000000","https://zillow.com/homedetails/639-N-Via-Colinas-Westlake-Village-CA-91362/16488275_zpid/","34.164165","-118.807945","CONDO","601900","3637","https://photos.zillowstatic.com/fp/6e7b53d59ba1ba6326f0ef059e6cf96c-p_e.jpg"
"1000 Lakeview Canyon Rd, Westlake Village, CA 91362","91362","Westlake Village","CA","4600000","4","6","5692","808.15","2.75","acres","7/2/2024","1719903600000","https://zillow.com/homedetails/1000-Lakeview-Canyon-Rd-Westlake-Village-CA-91362/16484255_zpid/","34.180256","-118.80623","SINGLE_FAMILY","4608700","18981","https://photos.zillowstatic.com/fp/3fdf7e46ad4cc5b54552bb6ff9af8ed1-p_e.jpg"
"1103 Country Valley Rd, Thousand Oaks, CA 91362","91362","Thousand Oaks","CA","3950000","5","5","5633","701.22","1.04","acres","7/2/2024","1719903600000","https://zillow.com/homedetails/1103-Country-Valley-Rd-Thousand-Oaks-CA-91362/16484383_zpid/","34.182972","-118.80484","SINGLE_FAMILY","3957500","13199","https://photos.zillowstatic.com/fp/cce786b6a62a69209c651843b737b9a1-p_e.jpg"
"1715 Misty Creek Rd, Thousand Oaks, CA 91362","91362","Thousand Oaks","CA","2995000","5","3","3330","899.4","0.49428374655647384","acres","7/2/2024","1719903600000","https://zillow.com/homedetails/1715-Misty-Creek-Rd-Thousand-Oaks-CA-91362/16488703_zpid/","34.19465","-118.79034","SINGLE_FAMILY","2947400","8113","https://photos.zillowstatic.com/fp/a925fa0070ed74d666a79f68a51d401f-p_e.jpg"
"2884 Crescent Way, Thousand Oaks, CA 91362","91362","Thousand Oaks","CA","650000","2","1","962","675.68","3600","sqft","6/28/2024","1719558000000","https://zillow.com/homedetails/2884-Crescent-Way-Thousand-Oaks-CA-91362/16477545_zpid/","34.170338","-118.83945","SINGLE_FAMILY","651400","3044","https://photos.zillowstatic.com/fp/91cbf4c86c1bdccfdd9a386ce0184ca4-p_e.jpg"
"4128 Valley Spring Dr, Thousand Oaks, CA 91362","91362","Thousand Oaks","CA","2828888","4","3","2994","944.85","20006","acres","6/28/2024","1719558000000","https://zillow.com/homedetails/4128-Valley-Spring-Dr-Thousand-Oaks-CA-91362/16489267_zpid/","34.190098","-118.81881","SINGLE_FAMILY","2835000","6999","https://photos.zillowstatic.com/fp/0d156584f59ed70d703c1148bccc57b9-p_e.jpg"
"2184 Pavo Ct #12, Thousand Oaks, CA 91362","91362","Thousand Oaks","CA","270000","2","2","1248","216.35","","","6/28/2024","1719558000000","https://zillow.com/homedetails/2184-Pavo-Ct-12-Thousand-Oaks-CA-91362/16503965_zpid/","34.178127","-118.845345","MANUFACTURED","270600","3253","https://photos.zillowstatic.com/fp/7363fa5928a61fe5f9f83cf9a92501de-p_e.jpg"
"2187 Pavo Ct #14, Thousand Oaks, CA 91362","91362","Thousand Oaks","CA","168950","1","1","336","502.83","","","6/28/2024","1719558000000","https://zillow.com/homedetails/2187-Pavo-Ct-14-Thousand-Oaks-CA-91362/16503967_zpid/","34.1784","-118.84531","MANUFACTURED","169300","1974","https://photos.zillowstatic.com/fp/a3ecc8283a27d8ee99e8375faa610747-p_e.jpg"
"2094 Rodeo Ct #51, Thousand Oaks, CA 91362","91362","Thousand Oaks","CA","249950","1","1","675","370.3","","","6/28/2024","1719558000000","https://zillow.com/homedetails/2094-Rodeo-Ct-51-Thousand-Oaks-CA-91362/16504004_zpid/","34.17854","-118.845436","MANUFACTURED","246800","2848","https://photos.zillowstatic.com/fp/1d1ef279bbd61504f370043fac04203a-p_e.jpg"
"3511 Indian Ridge Cir, Thousand Oaks, CA 91362","91362","Thousand Oaks","CA","1575000","3","3","2679","587.91","0.38604224058769515","acres","6/27/2024","1719471600000","https://zillow.com/homedetails/3511-Indian-Ridge-Cir-Thousand-Oaks-CA-91362/16430231_zpid/","34.216602","-118.8112","SINGLE_FAMILY","","5537","https://photos.zillowstatic.com/fp/6768e8cdf6406d25bb9b33531f26a4af-p_e.jpg"
"1348 E Hillcrest Dr UNIT 76, Thousand Oaks, CA 91362","91362","Thousand Oaks","CA","415000","1","1","654","634.56","654","sqft","6/26/2024","1719385200000","https://zillow.com/homedetails/1348-E-Hillcrest-Dr-UNIT-76-Thousand-Oaks-CA-91362/16477012_zpid/","34.181427","-118.85467","CONDO","415900","2325","https://photos.zillowstatic.com/fp/fb1a89b517f41d84842bd47171451e56-p_e.jpg"
"117 Piute Ave, Thousand Oaks, CA 91362","91362","Thousand Oaks","CA","290500","2","2","1580","183.86","","","6/26/2024","1719385200000","https://zillow.com/homedetails/117-Piute-Ave-Thousand-Oaks-CA-91362/345451775_zpid/","34.170906","-118.84264","MANUFACTURED","291400","3685","https://photos.zillowstatic.com/fp/b7aab7db21f96324cade26fb2c30610f-p_e.jpg"
"1359 El Monte Dr #1, Thousand Oaks, CA 91362","91362","Thousand Oaks","CA","1700000","4","3","2481","685.21","0.5050505050505051","acres","6/26/2024","1719385200000","https://zillow.com/homedetails/1359-El-Monte-Dr-1-Thousand-Oaks-CA-91362/350310357_zpid/","34.197075","-118.8533","SINGLE_FAMILY","1704900","6244","https://photos.zillowstatic.com/fp/89fcdf3f6525d37dc732d7d9537df623-p_e.jpg"
"2847 Sandhurst Ave, Thousand Oaks, CA 91362","91362","Thousand Oaks","CA","5000","4","3","2568","1.95","9583","sqft","6/25/2024","1719298800000","https://zillow.com/homedetails/2847-Sandhurst-Ave-Thousand-Oaks-CA-91362/16433079_zpid/","34.21847","-118.8352","SINGLE_FAMILY","1345100","5701","https://maps.googleapis.com/maps/api/staticmap?mobile=false&sensor=true&maptype=satellite&size=575x242&zoom=17&center=34.21847152709961,-118.83519744873047&key=AIzaSyBJsNQO5ZeG-XAbqqWLKwG08fWITSxg33w&signature=tSU45iz7sDzIokPp3mf4LxjVrxw="
"1359 El Monte Dr, Thousand Oaks, CA 91362","91362","Thousand Oaks","CA","1700000","4","2","2481","685.21","0.5","acres","6/25/2024","1719298800000","https://zillow.com/homedetails/1359-El-Monte-Dr-Thousand-Oaks-CA-91362/16482437_zpid/","34.197075","-118.85329","SINGLE_FAMILY","1703900","6602","https://photos.zillowstatic.com/fp/55ef9bb82c97ab4a96e45d95872b0f71-p_e.jpg"
"3041 E Hillcrest Dr, Thousand Oaks, CA 91362","91362","Thousand Oaks","CA","785000","3","3","1773","442.75","","","6/25/2024","1719298800000","https://zillow.com/homedetails/3041-E-Hillcrest-Dr-Thousand-Oaks-CA-91362/16484466_zpid/","34.17293","-118.83305","CONDO","786800","4076","https://photos.zillowstatic.com/fp/cf9a7c7566dfadb91b02f7f3e01202b1-p_e.jpg"
"1603 Ryder Cup Dr, Westlake Village, CA 91362","91362","Westlake Village","CA","1633500","3","3","2406","678.93","0.36944444444444446","acres","6/25/2024","1719298800000","https://zillow.com/homedetails/1603-Ryder-Cup-Dr-Westlake-Village-CA-91362/16489480_zpid/","34.19272","-118.81204","SINGLE_FAMILY","1637200","5404","https://photos.zillowstatic.com/fp/4c99a518e5a764a76ff91930ecce57b5-p_e.jpg"
"2192 Dawn Ct, Thousand Oaks, CA 91362","91362","Thousand Oaks","CA","550000","2","1","826","665.86","3920","sqft","6/24/2024","1719212400000","https://zillow.com/homedetails/2192-Dawn-Ct-Thousand-Oaks-CA-91362/16431425_zpid/","34.20876","-118.84529","TOWNHOUSE","551300","2895","https://photos.zillowstatic.com/fp/5c4d1ee40876bc35129576861d32c0df-p_e.jpg"
"2025 Lonestar Way, Thousand Oaks, CA 91362","91362","THOUSAND OAKS","CA","1840000","4","5","3889","473.13","0.28666207529843896","acres","6/24/2024","1719212400000","https://zillow.com/homedetails/2025-Lonestar-Way-Thousand-Oaks-CA-91362/96080696_zpid/","34.181133","-118.84395","SINGLE_FAMILY","1844300","9056","https://photos.zillowstatic.com/fp/2e5070b4bf0791ca09e3247e49a40e7b-p_e.jpg"
"133 Jeranios Ct, Thousand Oaks, CA 91362","91362","Thousand Oaks","CA","711000","2","3","1213","586.15","1742","sqft","6/20/2024","1718866800000","https://zillow.com/homedetails/133-Jeranios-Ct-Thousand-Oaks-CA-91362/16476917_zpid/","34.179626","-118.850334","TOWNHOUSE","712800","3295","https://photos.zillowstatic.com/fp/601cb90f865381ef3bf413e1dbb7e60b-p_e.jpg"
"1556 El Dorado Dr, Thousand Oaks, CA 91362","91362","Thousand Oaks","CA","2212500","5","5","3561","621.31","0.5856290174471993","acres","6/18/2024","1718694000000","https://zillow.com/homedetails/1556-El-Dorado-Dr-Thousand-Oaks-CA-91362/16482443_zpid/","34.195976","-118.85084","SINGLE_FAMILY","2135600","8180","https://photos.zillowstatic.com/fp/fcb04f4ec97312e6af7a477c74e2d380-p_e.jpg"
"1062 La Cresta Dr, Thousand Oaks, CA 91362","91362","Thousand Oaks","CA","1875000","4","3","2618","716.2","0.5853994490358126","acres","6/18/2024","1718694000000","https://zillow.com/homedetails/1062-La-Cresta-Dr-Thousand-Oaks-CA-91362/16482614_zpid/","34.19261","-118.85647","SINGLE_FAMILY","1880000","6701","https://photos.zillowstatic.com/fp/06e7445f62bf7a2553f2efabf599392f-p_e.jpg"
"4199 Woodlane Ct, Thousand Oaks, CA 91362","91362","Thousand Oaks","CA","3875000","6","7","7251","534.41","1.05","acres","6/18/2024","1718694000000","https://zillow.com/homedetails/4199-Woodlane-Ct-Thousand-Oaks-CA-91362/16489306_zpid/","34.193844","-118.818184","SINGLE_FAMILY","","15783","https://photos.zillowstatic.com/fp/82bddc076b24cc167bc1640ca8b85e23-p_e.jpg"
"140 Maegan Pl APT 8, Thousand Oaks, CA 91362","91362","Thousand Oaks","CA","620000","3","3","1200","516.67","1200","sqft","6/18/2024","1718694000000","https://zillow.com/homedetails/140-Maegan-Pl-APT-8-Thousand-Oaks-CA-91362/246549934_zpid/","34.179653","-118.85378","CONDO","621700","3392","https://photos.zillowstatic.com/fp/6651830b0bc120f686835f39c784e74e-p_e.jpg"
"2352 E Otono Cir, Thousand Oaks, CA 91362","91362","Thousand Oaks","CA","1330000","4","3","2501","531.79","10151","sqft","6/14/2024","1718348400000","https://zillow.com/homedetails/2352-E-Otono-Cir-Thousand-Oaks-CA-91362/16436596_zpid/","34.225143","-118.83608","SINGLE_FAMILY","","5994","https://photos.zillowstatic.com/fp/87c1b1698e4373dc1f5c4fff2dd262ca-p_e.jpg"
"3205 Sunset Hills Blvd, Thousand Oaks, CA 91362","91362","Thousand Oaks","CA","1750000","5","5","3609","484.9","9846","sqft","6/14/2024","1718348400000","https://zillow.com/homedetails/3205-Sunset-Hills-Blvd-Thousand-Oaks-CA-91362/52466213_zpid/","34.22439","-118.81743","SINGLE_FAMILY","1755100","7618","https://photos.zillowstatic.com/fp/4d7ad95e871ecadce77b408bc536e6ee-p_e.jpg"
"2260 Green Oak Ct, Thousand Oaks, CA 91362","91362","Thousand Oaks","CA","1310000","4","3","2180","600.92","6534","sqft","6/12/2024","1718175600000","https://zillow.com/homedetails/2260-Green-Oak-Ct-Thousand-Oaks-CA-91362/16432759_zpid/","34.214","-118.83703","SINGLE_FAMILY","1314000","5890","https://photos.zillowstatic.com/fp/188950744f84f28146dfe3de42215395-p_e.jpg"
"2297 Rutland Pl, Thousand Oaks, CA 91362","91362","Thousand Oaks","CA","1407500","4","3","2322","606.16","0.29471992653810836","acres","6/12/2024","1718175600000","https://zillow.com/homedetails/2297-Rutland-Pl-Thousand-Oaks-CA-91362/16433287_zpid/","34.22196","-118.83595","SINGLE_FAMILY","1411800","5660","https://photos.zillowstatic.com/fp/44694c0a0cd341377246e466ea4ae1fd-p_e.jpg"
"3147 W Sierra Dr, Thousand Oaks, CA 91362","91362","Thousand Oaks","CA","1505000","4","3","2251","668.59","7542","sqft","6/12/2024","1718175600000","https://zillow.com/homedetails/3147-W-Sierra-Dr-Thousand-Oaks-CA-91362/16483975_zpid/","34.172337","-118.826614","SINGLE_FAMILY","1509600","6513","https://photos.zillowstatic.com/fp/eb93e2ea3b96ae03f214bf70bb064eb8-p_e.jpg"
"1630 Burning Tree Dr, Thousand Oaks, CA 91362","91362","Thousand Oaks","CA","895000","3","2","1372","652.33","10673","sqft","6/11/2024","1718089200000","https://zillow.com/homedetails/1630-Burning-Tree-Dr-Thousand-Oaks-CA-91362/16431482_zpid/","34.213085","-118.84816","SINGLE_FAMILY","898400","4196","https://photos.zillowstatic.com/fp/f5aed46c9f1d9320845d5bcd92b3eebf-p_e.jpg"
"1665 Orinda Ct, Thousand Oaks, CA 91362","91362","Thousand Oaks","CA","560000","2","2","913","613.36","3920","sqft","6/11/2024","1718089200000","https://zillow.com/homedetails/1665-Orinda-Ct-Thousand-Oaks-CA-91362/16431795_zpid/","34.20744","-118.848785","TOWNHOUSE","562100","3040","https://photos.zillowstatic.com/fp/65dbcc6596989e96e0747c28f5d2b85a-p_e.jpg"
"2856 E Great Smokey Ct, Thousand Oaks, CA 91362","91362","Thousand Oaks","CA","1415000","4","2","1838","769.86","7000","sqft","6/10/2024","1718002800000","https://zillow.com/homedetails/2856-E-Great-Smokey-Ct-Thousand-Oaks-CA-91362/16483684_zpid/","34.166416","-118.8242","SINGLE_FAMILY","1434700","5671","https://photos.zillowstatic.com/fp/42d701c654b5d6b4e84d777b9d3d3715-p_e.jpg"
"3167 W Black Hills Ct, Westlake Village, CA 91362","91362","Westlake Village","CA","1455000","4","2","1838","791.62","7200","sqft","6/10/2024","1718002800000","https://zillow.com/homedetails/3167-W-Black-Hills-Ct-Westlake-Village-CA-91362/16484007_zpid/","34.171455","-118.827126","SINGLE_FAMILY","1460600","5355","https://photos.zillowstatic.com/fp/16212bcb63d0d7b760f6861b8df326da-p_e.jpg"
"2627 Ridgebrook Pl, Thousand Oaks, CA 91362","91362","Thousand Oaks","CA","1125000","3","2","1646","683.48","0.28000459136822775","acres","6/7/2024","1717743600000","https://zillow.com/homedetails/2627-Ridgebrook-Pl-Thousand-Oaks-CA-91362/16432679_zpid/","34.214634","-118.840294","SINGLE_FAMILY","1130000","4886","https://photos.zillowstatic.com/fp/2755c9847493d47e9ee8eb12950ec4df-p_e.jpg"
"168 Gazania Ct, Thousand Oaks, CA 91362","91362","Thousand Oaks","CA","500000","1","2","1009","495.54","435","sqft","6/7/2024","1717743600000","https://zillow.com/homedetails/168-Gazania-Ct-Thousand-Oaks-CA-91362/16476870_zpid/","34.18059","-118.85578","CONDO","502200","2660","https://photos.zillowstatic.com/fp/f15efa55a18b7b2854f0b67d255f6b48-p_e.jpg"
"2785 Westham Cir, Thousand Oaks, CA 91362","91362","Thousand Oaks","CA","1440000","4","3","2322","620.16","7376","sqft","6/6/2024","1717657200000","https://zillow.com/homedetails/2785-Westham-Cir-Thousand-Oaks-CA-91362/16433099_zpid/","34.21728","-118.83474","SINGLE_FAMILY","1445800","5711","https://photos.zillowstatic.com/fp/abf43423848ace15278dfd3b2268e4d9-p_e.jpg"
"2424 Los Feliz Dr, Thousand Oaks, CA 91362","91362","Thousand Oaks","CA","650000","2","1","864","752.31","9583","sqft","6/5/2024","1717570800000","https://zillow.com/homedetails/2424-Los-Feliz-Dr-Thousand-Oaks-CA-91362/16477415_zpid/","34.17583","-118.841484","SINGLE_FAMILY","780800","2960","https://maps.googleapis.com/maps/api/staticmap?mobile=false&sensor=true&maptype=satellite&size=575x242&zoom=17&center=34.17583084106445,-118.84148406982422&key=AIzaSyBJsNQO5ZeG-XAbqqWLKwG08fWITSxg33w&signature=4PJAv7nrSSFVUxuHtgAnFODUbHo="
"1831 Aleppo Ct, Thousand Oaks, CA 91362","91362","Thousand Oaks","CA","675000","3","2","1115","605.38","3920","sqft","6/4/2024","1717484400000","https://zillow.com/homedetails/1831-Aleppo-Ct-Thousand-Oaks-CA-91362/16432035_zpid/","34.20716","-118.84418","CONDO","684200","3549","https://photos.zillowstatic.com/fp/503e44a52b45e870cd0c76431cb75369-p_e.jpg"
"3156 Versaille Ct, Thousand Oaks, CA 91362","91362","Thousand Oaks","CA","1535000","5","5","3668","418.48","7966","sqft","6/4/2024","1717484400000","https://zillow.com/homedetails/3156-Versaille-Ct-Thousand-Oaks-CA-91362/16432644_zpid/","34.22151","-118.84368","SINGLE_FAMILY","1541400","7575","https://photos.zillowstatic.com/fp/36dee5f262e9b31a935e3b67a2798f5c-p_e.jpg"
"3315 W Sierra Dr, Thousand Oaks, CA 91362","91362","Thousand Oaks","CA","1325000","4","3","2434","544.37","7140","sqft","6/4/2024","1717484400000","https://zillow.com/homedetails/3315-W-Sierra-Dr-Thousand-Oaks-CA-91362/16484160_zpid/","34.1678","-118.830894","SINGLE_FAMILY","1286900","5921","https://photos.zillowstatic.com/fp/72e95d50af6f5e3ae722dd99908ad6e8-p_e.jpg"
"3333 Woodworth Ave, Thousand Oaks, CA 91362","91362","Thousand Oaks","CA","1900000","4","4","4024","472.17","0.2649678604224059","acres","6/4/2024","1717484400000","https://zillow.com/homedetails/3333-Woodworth-Ave-Thousand-Oaks-CA-91362/52466263_zpid/","34.225376","-118.819275","SINGLE_FAMILY","1907900","7199","https://photos.zillowstatic.com/fp/af9fa69a14e508fce7eb595340a689d3-p_e.jpg"
"1831 Aleppo Ct #41, Thousand Oaks, CA 91362","91362","Thousand Oaks","CA","675000","3","2","1115","605.38","3920.4","sqft","6/4/2024","1717484400000","https://zillow.com/homedetails/1831-Aleppo-Ct-41-Thousand-Oaks-CA-91362/342727952_zpid/","34.207165","-118.844185","CONDO","677800","3530","https://photos.zillowstatic.com/fp/f3112d66d1515a03e61f89684bb746be-p_e.jpg"
"1096 Lakeview Canyon Rd, Westlake Village, CA 91362","91362","Westlake Village","CA","12400000","5","10","12684","977.61","2.31","acres","6/3/2024","1717398000000","https://zillow.com/homedetails/1096-Lakeview-Canyon-Rd-Westlake-Village-CA-91362/16484254_zpid/","34.182728","-118.80694","SINGLE_FAMILY","12452500","7383","https://photos.zillowstatic.com/fp/6d78159d6b83d5e07249e9491d5cdd3e-p_e.jpg"
"2474 Pleasant Way UNIT I, Thousand Oaks, CA 91362","91362","Thousand Oaks","CA","475000","2","2","907","523.7","","","5/31/2024","1717138800000","https://zillow.com/homedetails/2474-Pleasant-Way-UNIT-I-Thousand-Oaks-CA-91362/16477658_zpid/","34.172897","-118.84301","CONDO","","2857","https://photos.zillowstatic.com/fp/7e147acdf0b4493eca23d1432a7b3dec-p_e.jpg"
"2462 Pleasant Way UNIT P, Thousand Oaks, CA 91362","91362","Thousand Oaks","CA","485000","2","1","907","534.73","906.048","sqft","5/31/2024","1717138800000","https://zillow.com/homedetails/2462-Pleasant-Way-UNIT-P-Thousand-Oaks-CA-91362/16477675_zpid/","34.172897","-118.84343","CONDO","487200","2754","https://photos.zillowstatic.com/fp/c6e1a2eceb2d198cb7e0ac5d53d33fbb-p_e.jpg"
"2593 Whitechapel Pl, Thousand Oaks, CA 91362","91362","Thousand Oaks","CA","1410000","4","3","2728","516.86","0.28243801652892564","acres","5/29/2024","1716966000000","https://zillow.com/homedetails/2593-Whitechapel-Pl-Thousand-Oaks-CA-91362/16433016_zpid/","34.219498","-118.830246","SINGLE_FAMILY","1416500","5756","https://photos.zillowstatic.com/fp/79a2568b748699a4c44dbf1df27439ae-p_e.jpg"
"779 Via Colinas, Westlake Village, CA 91362","91362","Westlake Village","CA","825000","3","3","1332","619.37","1332","sqft","5/28/2024","1716879600000","https://zillow.com/homedetails/779-Via-Colinas-Westlake-Village-CA-91362/16488460_zpid/","34.163933","-118.80859","CONDO","828900","4095","https://photos.zillowstatic.com/fp/c55cbd722318756b10f05c3dcab8a602-p_e.jpg"
"2099 Wetstone Ct, Thousand Oaks, CA 91362","91362","Thousand Oaks","CA","735000","3","3","1536","478.52","2336","sqft","5/24/2024","1716534000000","https://zillow.com/homedetails/2099-Wetstone-Ct-Thousand-Oaks-CA-91362/16431984_zpid/","34.208714","-118.84","TOWNHOUSE","738700","4141","https://photos.zillowstatic.com/fp/060f91225227a81670b614a1a1871d46-p_e.jpg"
"3033 Rikkard Dr, Thousand Oaks, CA 91362","91362","Thousand Oaks","CA","1365000","5","3","2832","481.99","7900","sqft","5/24/2024","1716534000000","https://zillow.com/homedetails/3033-Rikkard-Dr-Thousand-Oaks-CA-91362/16432303_zpid/","34.2202","-118.84124","SINGLE_FAMILY","1372000","6240","https://photos.zillowstatic.com/fp/bc27deec3a0c287329cacae63bdb9930-p_e.jpg"
"198 N Skyline Dr SPACE 51, Thousand Oaks, CA 91362","91362","Thousand Oaks","CA","225000","2","2","1000","225","","","5/24/2024","1716534000000","https://zillow.com/homedetails/198-N-Skyline-Dr-SPACE-51-Thousand-Oaks-CA-91362/16504239_zpid/","34.171036","-118.835754","MANUFACTURED","226100","2874","https://photos.zillowstatic.com/fp/8c6ecdb665eb73862b12c2c9afe7642c-p_e.jpg"
"2822 Country Vista St, Thousand Oaks, CA 91362","91362","Thousand Oaks","CA","1850000","3","3","3507","527.52","0.3880394857667585","acres","5/24/2024","1716534000000","https://zillow.com/homedetails/2822-Country-Vista-St-Thousand-Oaks-CA-91362/52466286_zpid/","34.225353","-118.82475","SINGLE_FAMILY","1859500","6991","https://photos.zillowstatic.com/fp/7ec6b6ca79c6dfdf937ffdf90c35e3dd-p_e.jpg"
"821 Falmouth St, Thousand Oaks, CA 91362","91362","Thousand Oaks","CA","1500000","5","3","2452","611.75","0.26377410468319556","acres","5/23/2024","1716447600000","https://zillow.com/homedetails/821-Falmouth-St-Thousand-Oaks-CA-91362/16483293_zpid/","34.18796","-118.84514","SINGLE_FAMILY","1507700","6544","https://photos.zillowstatic.com/fp/e1c1b442dfcc7775bf4f0d25eb063c54-p_e.jpg"
"2147 Hood Dr, Thousand Oaks, CA 91362","91362","Thousand Oaks","CA","1200000","4","3","2119","566.3","0.27548209366391185","acres","5/21/2024","1716274800000","https://zillow.com/homedetails/2147-Hood-Dr-Thousand-Oaks-CA-91362/16483195_zpid/","34.190422","-118.84113","SINGLE_FAMILY","1206400","5299","https://photos.zillowstatic.com/fp/648c7198e78a96338905b74a46742080-p_e.jpg"
"2709 Rikkard Dr, Thousand Oaks, CA 91362","91362","Thousand Oaks","CA","1470000","4","3","2558","574.67","8956","sqft","5/20/2024","1716188400000","https://zillow.com/homedetails/2709-Rikkard-Dr-Thousand-Oaks-CA-91362/16432173_zpid/","34.215206","-118.84198","SINGLE_FAMILY","1478000","6588","https://photos.zillowstatic.com/fp/386f9543123de5eafb578c5086709f55-p_e.jpg"
"1575 Fremont Dr, Thousand Oaks, CA 91362","91362","Thousand Oaks","CA","1270000","4","3","2099","605.05","0.3741965105601469","acres","5/20/2024","1716188400000","https://zillow.com/homedetails/1575-Fremont-Dr-Thousand-Oaks-CA-91362/16482195_zpid/","34.203793","-118.850555","SINGLE_FAMILY","1276900","6082","https://photos.zillowstatic.com/fp/09918a794db50dfa38ffcc41984c4283-p_e.jpg"
"1137 Valley High Ave, Thousand Oaks, CA 91362","91362","Thousand Oaks","CA","1034300","3","2","1567","660.05","10020","sqft","5/20/2024","1716188400000","https://zillow.com/homedetails/1137-Valley-High-Ave-Thousand-Oaks-CA-91362/16482828_zpid/","34.193398","-118.845856","SINGLE_FAMILY","1040100","4873","https://photos.zillowstatic.com/fp/35161247016d3df783aa7459070e8853-p_e.jpg"
"1748 Country Oaks Ln, Thousand Oaks, CA 91362","91362","Thousand Oaks","CA","1600000","4","3","2470","647.77","0.2908402203856749","acres","5/17/2024","1715929200000","https://zillow.com/homedetails/1748-Country-Oaks-Ln-Thousand-Oaks-CA-91362/16483087_zpid/","34.19646","-118.84601","SINGLE_FAMILY","","6276","https://photos.zillowstatic.com/fp/de704cd73fe22b3c2ee90859c5ae9273-p_e.jpg"
"1748 Country Oaks Ln, Thousand Oaks, CA 91362","91362","Thousand Oaks","CA","1600000","4","2.5","2470","647.77","0.28999081726354453","acres","5/17/2024","1715929200000","https://zillow.com/homedetails/1748-Country-Oaks-Ln-Thousand-Oaks-CA-91362/241533614_zpid/","34.19646","-118.84598","SINGLE_FAMILY","1609100","6002","https://maps.googleapis.com/maps/api/staticmap?mobile=false&sensor=true&maptype=satellite&size=575x242&zoom=17&center=34.19646072387695,-118.84597778320312&key=AIzaSyBJsNQO5ZeG-XAbqqWLKwG08fWITSxg33w&signature=j2JvtOuX_DoaUJo_l-iLz9-57Aw="
"3544 N Quarzo Cir, Thousand Oaks, CA 91362","91362","Thousand Oaks","CA","1349000","4","3","2279","591.93","0.2508034894398531","acres","5/14/2024","1715670000000","https://zillow.com/homedetails/3544-N-Quarzo-Cir-Thousand-Oaks-CA-91362/16436535_zpid/","34.227165","-118.841835","SINGLE_FAMILY","1328700","5939","https://photos.zillowstatic.com/fp/1a3387af9ec82849e2fcc36a54cc8769-p_e.jpg"
"3021 E Adirondack Ct, Thousand Oaks, CA 91362","91362","Thousand Oaks","CA","1310000","3","2","1583","827.54","7020","sqft","5/14/2024","1715670000000","https://zillow.com/homedetails/3021-E-Adirondack-Ct-Thousand-Oaks-CA-91362/16483810_zpid/","34.169144","-118.82464","SINGLE_FAMILY","1259400","4882","https://photos.zillowstatic.com/fp/1595a8876694388ff0dfa87eb22cc9a1-p_e.jpg"
"387 Westlake Vista Ln, Thousand Oaks, CA 91362","91362","Thousand Oaks","CA","4050","3","3","1822","2.22","","","5/14/2024","1715670000000","https://zillow.com/homedetails/387-Westlake-Vista-Ln-Thousand-Oaks-CA-91362/54900370_zpid/","34.17635","-118.836426","TOWNHOUSE","863700","4006","https://photos.zillowstatic.com/fp/f5b5d5585074947f6505ac3e960e621a-p_e.jpg"
"3215 Eaglewood Ave, Thousand Oaks, CA 91362","91362","Thousand Oaks","CA","1480000","3","3","3100","477.42","0.26988062442607896","acres","5/13/2024","1715583600000","https://zillow.com/homedetails/3215-Eaglewood-Ave-Thousand-Oaks-CA-91362/52466089_zpid/","34.22366","-118.825035","SINGLE_FAMILY","1489000","6538","https://photos.zillowstatic.com/fp/c7d9d272731b99f713d44ac2406c45e1-p_e.jpg"
"1342 E Hillcrest Dr UNIT 21, Thousand Oaks, CA 91362","91362","Thousand Oaks","CA","380000","1","1","654","581.04","654","sqft","5/10/2024","1715324400000","https://zillow.com/homedetails/1342-E-Hillcrest-Dr-UNIT-21-Thousand-Oaks-CA-91362/16476957_zpid/","34.18105","-118.855","CONDO","382400","2325","https://photos.zillowstatic.com/fp/cbec273e4de968872cbdae064dc9df16-p_e.jpg"
"1531 N View Dr, Westlake Village, CA 91362","91362","Westlake Village","CA","1065000","3","3","2219","479.95","2219","sqft","5/10/2024","1715324400000","https://zillow.com/homedetails/1531-N-View-Dr-Westlake-Village-CA-91362/16489801_zpid/","34.190804","-118.81007","TOWNHOUSE","1062900","5191","https://photos.zillowstatic.com/fp/298d7811998e45e8bd0ad31f7a2e2a1c-p_e.jpg"
"2726 Thunderbird Dr #30, Thousand Oaks, CA 91362","91362","Thousand Oaks","CA","380000","2","2","1376","276.16","6011","sqft","5/10/2024","1715324400000","https://zillow.com/homedetails/2726-Thunderbird-Dr-30-Thousand-Oaks-CA-91362/16504061_zpid/","34.169724","-118.842316","MANUFACTURED","382400","3302","https://photos.zillowstatic.com/fp/90907d6531e7edb346273466d3033951-p_e.jpg"
"991 Emerson St, Thousand Oaks, CA 91362","91362","Thousand Oaks","CA","1076000","3","2","2196","489.98","0.256","acres","5/9/2024","1715238000000","https://zillow.com/homedetails/991-Emerson-St-Thousand-Oaks-CA-91362/16483278_zpid/","34.19015","-118.84373","SINGLE_FAMILY","991400","5640","https://photos.zillowstatic.com/fp/8f14b1d11798e74cd3c7c73c1cd62ead-p_e.jpg"
"429 Encino Vista Dr, Thousand Oaks, CA 91362","91362","Thousand Oaks","CA","1250000","4","3","2545","491.16","0.640495867768595","acres","5/8/2024","1715151600000","https://zillow.com/homedetails/429-Encino-Vista-Dr-Thousand-Oaks-CA-91362/16476457_zpid/","34.184044","-118.85955","SINGLE_FAMILY","1814500","6932","https://photos.zillowstatic.com/fp/ece09d849089f9c89ed8c40c8bbe0c5d-p_e.jpg"
"2414 Pleasant Way UNIT B, Thousand Oaks, CA 91362","91362","Thousand Oaks","CA","551000","3","2","1113","495.06","1113","sqft","5/8/2024","1715151600000","https://zillow.com/homedetails/2414-Pleasant-Way-UNIT-B-Thousand-Oaks-CA-91362/16477730_zpid/","34.17226","-118.843864","CONDO","554600","3373","https://photos.zillowstatic.com/fp/93cf5a8704d3c3fb1f01358f654ffec2-p_e.jpg"
"1508 La Jolla Dr, Thousand Oaks, CA 91362","91362","Thousand Oaks","CA","1800000","4","3","2632","683.89","0.47183195592286503","acres","5/8/2024","1715151600000","https://zillow.com/homedetails/1508-La-Jolla-Dr-Thousand-Oaks-CA-91362/16482724_zpid/","34.187817","-118.85201","SINGLE_FAMILY","1811700","7157","https://photos.zillowstatic.com/fp/b33005a43d4753c08ee42d9cd0ab0fd9-p_e.jpg"
"309 Eric Pl, Thousand Oaks, CA 91362","91362","Thousand Oaks","CA","800000","3","3","1824","438.6","1825.164","sqft","5/8/2024","1715151600000","https://zillow.com/homedetails/309-Eric-Pl-Thousand-Oaks-CA-91362/63031661_zpid/","34.174435","-118.83606","TOWNHOUSE","805200","4032","https://photos.zillowstatic.com/fp/44eab8cb1f749eb4c2020a8938ecf0cf-p_e.jpg"
"1490 Berea Cir, Thousand Oaks, CA 91362","91362","Thousand Oaks","CA","1925000","4","3","3072","626.63","0.4767676767676768","acres","5/7/2024","1715065200000","https://zillow.com/homedetails/1490-Berea-Cir-Thousand-Oaks-CA-91362/16482768_zpid/","34.19081","-118.85209","SINGLE_FAMILY","1937700","7476","https://photos.zillowstatic.com/fp/542ed987f0511bf6d482bc7fc2a816cd-p_e.jpg"
"1787 Southern Hills Pl, Westlake Village, CA 91362","91362","Westlake Village","CA","1550000","3","3","2641","586.9","6202","sqft","5/6/2024","1714978800000","https://zillow.com/homedetails/1787-Southern-Hills-Pl-Westlake-Village-CA-91362/16490018_zpid/","34.19583","-118.808334","SINGLE_FAMILY","1622500","6182","https://photos.zillowstatic.com/fp/e1f0b979e6c4a90db9c51dd55ea1cc5b-p_e.jpg"
"3270 N Sawtooth Ct, Thousand Oaks, CA 91362","91362","Thousand Oaks","CA","1349000","4","2","2078","649.18","7000","sqft","5/2/2024","1714633200000","https://zillow.com/homedetails/3270-N-Sawtooth-Ct-Thousand-Oaks-CA-91362/16484105_zpid/","34.169765","-118.83218","SINGLE_FAMILY","1358500","5245","https://photos.zillowstatic.com/fp/dac18ef3fef400d2d13b6960539fc199-p_e.jpg"
"2799 Shelter Wood Ct, Thousand Oaks, CA 91362","91362","Thousand Oaks","CA","920000","3","2","1452","633.61","7428","sqft","5/1/2024","1714546800000","https://zillow.com/homedetails/2799-Shelter-Wood-Ct-Thousand-Oaks-CA-91362/16431584_zpid/","34.21616","-118.84879","SINGLE_FAMILY","927500","4361","https://photos.zillowstatic.com/fp/e0530b10c5c176c29cf289193b80e497-p_e.jpg"
"3083 E Hillcrest Dr, Thousand Oaks, CA 91362","91362","Thousand Oaks","CA","775000","3","3","1773","437.11","1773","sqft","5/1/2024","1714546800000","https://zillow.com/homedetails/3083-E-Hillcrest-Dr-Thousand-Oaks-CA-91362/16484449_zpid/","34.172413","-118.83292","CONDO","780500","4076","https://photos.zillowstatic.com/fp/63a2502f32c1632bb38b456fe71d08cf-p_e.jpg"
"2873 Capella Way, Thousand Oaks, CA 91362","91362","Thousand Oaks","CA","890500","3","3","1631","545.98","1629.144","sqft","4/30/2024","1714460400000","https://zillow.com/homedetails/2873-Capella-Way-Thousand-Oaks-CA-91362/16430707_zpid/","34.217293","-118.819305","TOWNHOUSE","897000","4155","https://photos.zillowstatic.com/fp/4bf65ce811fcd8e898153df2b7c4963e-p_e.jpg"
"1428 El Monte Dr, Thousand Oaks, CA 91362","91362","Thousand Oaks","CA","1962000","5","5","5000","392.4","0.6813820018365473","acres","4/30/2024","1714460400000","https://zillow.com/homedetails/1428-El-Monte-Dr-Thousand-Oaks-CA-91362/16482423_zpid/","34.19765","-118.851295","SINGLE_FAMILY","1976300","17000","https://photos.zillowstatic.com/fp/39800848339815b1522582bb63af34fb-p_e.jpg"
"942 Misty Canyon Ave, Westlake Village, CA 91362","91362","Westlake Village","CA","1050000","3","3","1819","577.24","1819","sqft","4/30/2024","1714460400000","https://zillow.com/homedetails/942-Misty-Canyon-Ave-Westlake-Village-CA-91362/16488827_zpid/","34.179485","-118.791145","SINGLE_FAMILY","1057700","4420","https://photos.zillowstatic.com/fp/a4a2b2e79855d9be1c6d46885d823632-p_e.jpg"
"198 N Skyline Dr SPACE 27, Thousand Oaks, CA 91362","91362","Thousand Oaks","CA","172000","1","1","672","255.95","672","sqft","4/30/2024","1714460400000","https://zillow.com/homedetails/198-N-Skyline-Dr-SPACE-27-Thousand-Oaks-CA-91362/16504212_zpid/","34.170967","-118.8359","MANUFACTURED","173300","2262","https://photos.zillowstatic.com/fp/a612aab2369de66de9e0120dcda6a452-p_e.jpg"
"2553 Carpenter St, Thousand Oaks, CA 91362","91362","Thousand Oaks","CA","1600000","3","2","2288","699.3","0.3079","acres","4/29/2024","1714374000000","https://zillow.com/homedetails/2553-Carpenter-St-Thousand-Oaks-CA-91362/16483416_zpid/","34.19623","-118.83427","SINGLE_FAMILY","1611900","6223","https://photos.zillowstatic.com/fp/e27757257df713df1f18b734230eb785-p_e.jpg"
"2816 Blazing Star Dr, Thousand Oaks, CA 91362","91362","Thousand Oaks","CA","1219000","3","3","2632","463.15","2632","sqft","4/29/2024","1714374000000","https://zillow.com/homedetails/2816-Blazing-Star-Dr-Thousand-Oaks-CA-91362/52465716_zpid/","34.21676","-118.8247","SINGLE_FAMILY","1228100","5596","https://photos.zillowstatic.com/fp/25e2a84a42c56f4f23fe53b318105dc7-p_e.jpg"
"3139 Foxtail Ct, Thousand Oaks, CA 91362","91362","Thousand Oaks","CA","1200000","4","3","1806","664.45","1806","sqft","4/26/2024","1714114800000","https://zillow.com/homedetails/3139-Foxtail-Ct-Thousand-Oaks-CA-91362/16430354_zpid/","34.218945","-118.81748","SINGLE_FAMILY","1209400","4525","https://photos.zillowstatic.com/fp/a388d50314277b7c92f587df3440f715-p_e.jpg"
"3111 Eaglewood Ave, Thousand Oaks, CA 91362","91362","Thousand Oaks","CA","1900000","5","5","3608","526.61","0.4713269054178145","acres","4/26/2024","1714114800000","https://zillow.com/homedetails/3111-Eaglewood-Ave-Thousand-Oaks-CA-91362/52466101_zpid/","34.221767","-118.82675","SINGLE_FAMILY","1914900","8000","https://photos.zillowstatic.com/fp/b66ad5bf67fa8c927c0ae3dbab1e1d70-p_e.jpg"
"1856 Dawn Meadow St, Thousand Oaks, CA 91362","91362","Thousand Oaks","CA","11150000","6","9","11000","1013.64","2.3734","acres","4/26/2024","1714114800000","https://zillow.com/homedetails/1856-Dawn-Meadow-St-Thousand-Oaks-CA-91362/2060823020_zpid/","34.19692","-118.80437","SINGLE_FAMILY","11271800","6611","https://photos.zillowstatic.com/fp/13df9bf9af31c899a3c3de288309470a-p_e.jpg"
"390 N Via Colinas, Westlake Village, CA 91362","91362","Westlake Village","CA","817500","3","3","1332","613.74","1332","sqft","4/25/2024","1714028400000","https://zillow.com/homedetails/390-N-Via-Colinas-Westlake-Village-CA-91362/16488148_zpid/","34.162155","-118.807365","TOWNHOUSE","824000","4284","https://photos.zillowstatic.com/fp/3efc50ac0a5eb7af719e14ba6b64c09c-p_e.jpg"
"446 N Rancho Rd, Thousand Oaks, CA 91362","91362","Thousand Oaks","CA","1875000","4","5","4579","409.48","0.49451331496786044","acres","4/25/2024","1714028400000","https://zillow.com/homedetails/446-N-Rancho-Rd-Thousand-Oaks-CA-91362/82774560_zpid/","34.184364","-118.85671","SINGLE_FAMILY","1890000","13238","https://photos.zillowstatic.com/fp/25deb83a090d1382c2718eccf7757da2-p_e.jpg"
"1051 Candlecrest Dr, Thousand Oaks, CA 91362","91362","Thousand Oaks","CA","8275000","6","9","10110","818.5","3.04","acres","4/24/2024","1713942000000","https://zillow.com/homedetails/1051-Candlecrest-Dr-Thousand-Oaks-CA-91362/16484296_zpid/","34.18144","-118.81311","SINGLE_FAMILY","8342300","7541","https://photos.zillowstatic.com/fp/a8e4b06ef826048bfa7746108e268990-p_e.jpg"
"3003 E Hillcrest Dr, Thousand Oaks, CA 91362","91362","Thousand Oaks","CA","760000","3","3","1547","491.27","1547","sqft","4/24/2024","1713942000000","https://zillow.com/homedetails/3003-E-Hillcrest-Dr-Thousand-Oaks-CA-91362/16484479_zpid/","34.173405","-118.83298","TOWNHOUSE","766200","3911","https://photos.zillowstatic.com/fp/0487aa7ea44c329198646f0149ef2ac3-p_e.jpg"
"2818 Florentine Ct, Thousand Oaks, CA 91362","91362","Thousand Oaks","CA","1450000","4","3","2632","550.91","2632","sqft","4/24/2024","1713942000000","https://zillow.com/homedetails/2818-Florentine-Ct-Thousand-Oaks-CA-91362/49942446_zpid/","34.216022","-118.82454","SINGLE_FAMILY","1462000","5693","https://photos.zillowstatic.com/fp/63c05ce92c936341f43a04819d48c890-p_e.jpg"
"1753 Alder Wood Pl, Thousand Oaks, CA 91362","91362","Thousand Oaks","CA","1140000","4","3","2187","521.26","10025","sqft","4/23/2024","1713855600000","https://zillow.com/homedetails/1753-Alder-Wood-Pl-Thousand-Oaks-CA-91362/16431727_zpid/","34.21966","-118.846085","SINGLE_FAMILY","1149400","4917","https://photos.zillowstatic.com/fp/1bd5c0ecd0dd7438fab060a2c07f1463-p_e.jpg"
"2920 Irongate Pl, Thousand Oaks, CA 91362","91362","Thousand Oaks","CA","1550000","4","3","2322","667.53","7531","sqft","4/23/2024","1713855600000","https://zillow.com/homedetails/2920-Irongate-Pl-Thousand-Oaks-CA-91362/16433127_zpid/","34.21936","-118.83701","SINGLE_FAMILY","1562800","5292","https://photos.zillowstatic.com/fp/984fa6ac3430334f8f49fdcf1f90fe86-p_e.jpg"
"2887 Queens Way, Thousand Oaks, CA 91362","91362","Thousand Oaks","CA","1380000","4","3","3014","457.86","0.296763085399449","acres","4/19/2024","1713510000000","https://zillow.com/homedetails/2887-Queens-Way-Thousand-Oaks-CA-91362/16432958_zpid/","34.21846","-118.831245","SINGLE_FAMILY","1393000","6584","https://photos.zillowstatic.com/fp/e4622b86bbe90070e0dd234fbba8fb8a-p_e.jpg"
"3236 Royal Oaks Dr #4, Thousand Oaks, CA 91362","91362","Thousand Oaks","CA","775000","3","3","1887","410.7","5.19","acres","4/18/2024","1713423600000","https://zillow.com/homedetails/3236-Royal-Oaks-Dr-4-Thousand-Oaks-CA-91362/337908631_zpid/","34.166126","-118.83642","TOWNHOUSE","782100","4664","https://photos.zillowstatic.com/fp/e0d596547f8fad21ce20c0f67b2176a2-p_e.jpg"
"1949 Coventry Ct, Thousand Oaks, CA 91362","91362","Thousand Oaks","CA","1090000","3","2","2019","539.87","0.4358815426997245","acres","4/17/2024","1713337200000","https://zillow.com/homedetails/1949-Coventry-Ct-Thousand-Oaks-CA-91362/16482279_zpid/","34.204445","-118.84634","SINGLE_FAMILY","1099900","6542","https://photos.zillowstatic.com/fp/a691cf590db19eac6f76c41473baa939-p_e.jpg"
"967 Via Colinas, Westlake Village, CA 91362","91362","Westlake Village","CA","796000","3","3","1332","597.6","1332","sqft","4/17/2024","1713337200000","https://zillow.com/homedetails/967-Via-Colinas-Westlake-Village-CA-91362/16488578_zpid/","34.16208","-118.80901","TOWNHOUSE","803300","4133","https://photos.zillowstatic.com/fp/d0208565cd4c6a8a158009ce79e150a9-p_e.jpg"
"1615 El Dorado Dr, Thousand Oaks, CA 91362","91362","Thousand Oaks","CA","1480000","3","2","1655","894.26","0.5666666666666667","acres","4/16/2024","1713250800000","https://zillow.com/homedetails/1615-El-Dorado-Dr-Thousand-Oaks-CA-91362/16482465_zpid/","34.196304","-118.84878","SINGLE_FAMILY","1493700","4773","https://photos.zillowstatic.com/fp/ee4e2e3908d0198195428c077955504c-p_e.jpg"
"5054 Royal Vista Ct, Westlake Village, CA 91362","91362","Westlake Village","CA","5175000","6","7","5839","886.28","1.21","acres","4/16/2024","1713250800000","https://zillow.com/homedetails/5054-Royal-Vista-Ct-Westlake-Village-CA-91362/16484351_zpid/","34.181877","-118.80121","SINGLE_FAMILY","5223000","20301","https://photos.zillowstatic.com/fp/f1a4fa675ffba3052e8c91c5292b00c4-p_e.jpg"
"5743 Ingram Pl, Westlake Village, CA 91362","91362","Westlake Village","CA","1310000","4","3","2223","589.29","2223","sqft","4/16/2024","1713250800000","https://zillow.com/homedetails/5743-Ingram-Pl-Westlake-Village-CA-91362/16489113_zpid/","34.181583","-118.78834","TOWNHOUSE","1322100","5216","https://photos.zillowstatic.com/fp/d54b66cdc5cccdb9ab40fa1c21fdbfaf-p_e.jpg"
"334 E Hilltop Way, Thousand Oaks, CA 91362","91362","Thousand Oaks","CA","845000","3","3","1762","479.57","1762","sqft","4/16/2024","1713250800000","https://zillow.com/homedetails/334-E-Hilltop-Way-Thousand-Oaks-CA-91362/82971844_zpid/","34.174984","-118.83617","TOWNHOUSE","863200","4179","https://photos.zillowstatic.com/fp/50b09e30cab093b1caec7e3f2c2d6045-p_e.jpg"
"1672 Upper Ranch Rd, Westlake Village, CA 91362","91362","Westlake Village","CA","2900000","5","6","5032","576.31","0.5102157943067034","acres","4/15/2024","1713164400000","https://zillow.com/homedetails/1672-Upper-Ranch-Rd-Westlake-Village-CA-91362/16489408_zpid/","34.193336","-118.81646","SINGLE_FAMILY","2927300","11381","https://photos.zillowstatic.com/fp/64b68763376f8510dc948de1236191e1-p_e.jpg"
"2880 Capella Way, Thousand Oaks, CA 91362","91362","Thousand Oaks","CA","1025000","3","3","1453","705.44","3203","sqft","4/12/2024","1712905200000","https://zillow.com/homedetails/2880-Capella-Way-Thousand-Oaks-CA-91362/16430730_zpid/","34.21645","-118.81911","SINGLE_FAMILY","1035100","4132","https://photos.zillowstatic.com/fp/d64f007d2758e70fc3e99ff136ed7892-p_e.jpg"
"1681 Alder Wood Pl, Thousand Oaks, CA 91362","91362","Thousand Oaks","CA","1075000","4","2","1750","614.29","9715","sqft","4/12/2024","1712905200000","https://zillow.com/homedetails/1681-Alder-Wood-Pl-Thousand-Oaks-CA-91362/16431255_zpid/","34.22034","-118.84788","SINGLE_FAMILY","1085600","4358","https://photos.zillowstatic.com/fp/24b3be2a8c7856f3971d41ccefa09fd8-p_e.jpg"
"2218 Birchdale Dr, Thousand Oaks, CA 91362","91362","Thousand Oaks","CA","675000","2","2","1128","598.4","3145.032","sqft","4/12/2024","1712905200000","https://zillow.com/homedetails/2218-Birchdale-Dr-Thousand-Oaks-CA-91362/16431976_zpid/","34.208946","-118.84105","TOWNHOUSE","681600","3622","https://photos.zillowstatic.com/fp/493dfd9e98fc849b1724043bb468c3ec-p_e.jpg"
"1660 El Verano Dr, Thousand Oaks, CA 91362","91362","Thousand Oaks","CA","2350000","6","6","4921","477.55","0.7589990817263544","acres","4/12/2024","1712905200000","https://zillow.com/homedetails/1660-El-Verano-Dr-Thousand-Oaks-CA-91362/16482497_zpid/","34.19381","-118.84843","SINGLE_FAMILY","2373100","9232","https://photos.zillowstatic.com/fp/7ef2d96c89f518bc39d93526d8cacfbb-p_e.jpg"
"4693 Sunnyhill St, Westlake Village, CA 91362","91362","Westlake Village","CA","5495000","5","6","5520","995.47","1.043","acres","4/12/2024","1712905200000","https://zillow.com/homedetails/4693-Sunnyhill-St-Westlake-Village-CA-91362/249211423_zpid/","34.1886","-118.80933","SINGLE_FAMILY","5550600","21606","https://photos.zillowstatic.com/fp/4690e675fd822a3992803abab199dcc3-p_e.jpg"
"2457 Arapaho Ave #131, Thousand Oaks, CA 91362","91362","Thousand Oaks","CA","217000","2","2","1536","141.28","","","4/12/2024","1712905200000","https://zillow.com/homedetails/2457-Arapaho-Ave-131-Thousand-Oaks-CA-91362/2054304357_zpid/","34.171543","-118.84447","MANUFACTURED","219800","3742","https://photos.zillowstatic.com/fp/9856fe556b9dcf1a0bcae8a0fe34f248-p_e.jpg"
"2009 E McCrea Rd, Thousand Oaks, CA 91362","91362","Thousand Oaks","CA","909300","3","2","1456","624.52","0.26533516988062444","acres","4/11/2024","1712818800000","https://zillow.com/homedetails/2009-E-McCrea-Rd-Thousand-Oaks-CA-91362/16436511_zpid/","34.228504","-118.842285","SINGLE_FAMILY","918600","4030","https://photos.zillowstatic.com/fp/13b66493e6a0aa6e1cac52a985570ae0-p_e.jpg"
"5592 Little Fawn Ct, Westlake Village, CA 91362","91362","Westlake Village","CA","2300000","4","6","4170","551.56","0.4698576675849403","acres","4/11/2024","1712818800000","https://zillow.com/homedetails/5592-Little-Fawn-Ct-Westlake-Village-CA-91362/16487811_zpid/","34.190556","-118.79134","SINGLE_FAMILY","2322900","9039","https://photos.zillowstatic.com/fp/bc838422c1ca5332ecdce235f186db90-p_e.jpg"
"1832 Burning Tree Dr, Thousand Oaks, CA 91362","91362","Thousand Oaks","CA","825000","3","2","1080","763.89","6091","sqft","4/9/2024","1712646000000","https://zillow.com/homedetails/1832-Burning-Tree-Dr-Thousand-Oaks-CA-91362/16431049_zpid/","34.21307","-118.844925","SINGLE_FAMILY","833500","3640","https://photos.zillowstatic.com/fp/c9e535cffbad12d7b581809c92a2e221-p_e.jpg"
"1934 Smokey Ridge Ave, Thousand Oaks, CA 91362","91362","Thousand Oaks","CA","2750000","4","6","4488","612.75","0.502020202020202","acres","4/9/2024","1712646000000","https://zillow.com/homedetails/1934-Smokey-Ridge-Ave-Thousand-Oaks-CA-91362/16487891_zpid/","34.19873","-118.785416","SINGLE_FAMILY","2778200","10816","https://photos.zillowstatic.com/fp/63af9fbf0583356166f1f874e278dbee-p_e.jpg"
"1674 La Jolla Dr, Thousand Oaks, CA 91362","91362","Thousand Oaks","CA","1600000","4","3","3124","512.16","0.71","acres","4/9/2024","1712646000000","https://zillow.com/homedetails/1674-La-Jolla-Dr-Thousand-Oaks-CA-91362/66107877_zpid/","34.18803","-118.84787","SINGLE_FAMILY","1616400","6891","https://photos.zillowstatic.com/fp/3d7f4a3a75c522867b6d24481757f285-p_e.jpg"
"2487 La Granada Dr, Thousand Oaks, CA 91362","91362","Thousand Oaks","CA","1830000","4","4","3037","602.57","0.2706611570247934","acres","4/8/2024","1712559600000","https://zillow.com/homedetails/2487-La-Granada-Dr-Thousand-Oaks-CA-91362/16477573_zpid/","34.18616","-118.837234","SINGLE_FAMILY","1849000","7366","https://photos.zillowstatic.com/fp/0da10a6033c379abc6427daa22324a7f-p_e.jpg"
"3216 N Allegheny Ct, Thousand Oaks, CA 91362","91362","Thousand Oaks","CA","1690000","5","3","2957","571.53","7405","sqft","4/8/2024","1712559600000","https://zillow.com/homedetails/3216-N-Allegheny-Ct-Thousand-Oaks-CA-91362/16484042_zpid/","34.170258","-118.82876","SINGLE_FAMILY","1707600","7704","https://photos.zillowstatic.com/fp/c2faf9e32c4fa9e6bd314cc159573782-p_e.jpg"
"3216 Allegheny Ct, Thousand Oaks, CA 91362","91362","Thousand Oaks","CA","1690000","5","3","2957","571.53","7600","sqft","4/8/2024","1712559600000","https://zillow.com/homedetails/3216-Allegheny-Ct-Thousand-Oaks-CA-91362/2057879530_zpid/","34.170307","-118.82905","SINGLE_FAMILY","1715000","7326","https://photos.zillowstatic.com/fp/d41c944a10d44a65a3a423e9e8f993a0-p_e.jpg"
"1773 Orinda Ct, Thousand Oaks, CA 91362","91362","Thousand Oaks","CA","619000","3","2","1171","528.61","3920","sqft","4/5/2024","1712300400000","https://zillow.com/homedetails/1773-Orinda-Ct-Thousand-Oaks-CA-91362/16431409_zpid/","34.208538","-118.84645","TOWNHOUSE","625700","3636","https://photos.zillowstatic.com/fp/e336da56b7f3d22b4858f775ed2d912e-p_e.jpg"
"1975 Meadow View Ct, Thousand Oaks, CA 91362","91362","Thousand Oaks","CA","899900","4","2","1664","540.81","0.25252525252525254","acres","4/5/2024","1712300400000","https://zillow.com/homedetails/1975-Meadow-View-Ct-Thousand-Oaks-CA-91362/16482214_zpid/","34.205368","-118.85047","SINGLE_FAMILY","909700","4979","https://photos.zillowstatic.com/fp/75503c2e8c70f2634ecaba59c31e79df-p_e.jpg"
"2664 Mohawk Ave #52, Thousand Oaks, CA 91362","91362","Thousand Oaks","CA","283000","2","2","1040","272.12","1040","sqft","4/4/2024","1712214000000","https://zillow.com/homedetails/2664-Mohawk-Ave-52-Thousand-Oaks-CA-91362/16504099_zpid/","34.170956","-118.84294","MANUFACTURED","286100","3044","https://maps.googleapis.com/maps/api/staticmap?mobile=false&sensor=true&maptype=satellite&size=575x242&zoom=17&center=34.170955657958984,-118.84294128417969&key=AIzaSyBJsNQO5ZeG-XAbqqWLKwG08fWITSxg33w&signature=YYrOElWQBCJlFyU8SQTn6_sq4Ls="
"3178 Sunset Hills Blvd, Thousand Oaks, CA 91362","91362","Thousand Oaks","CA","1600000","4","3","3100","516.13","0.26508264462809916","acres","4/3/2024","1712127600000","https://zillow.com/homedetails/3178-Sunset-Hills-Blvd-Thousand-Oaks-CA-91362/52466181_zpid/","34.224","-118.81815","SINGLE_FAMILY","1618000","6699","https://photos.zillowstatic.com/fp/9ffe175551a2ab19efd7104d72acbcfd-p_e.jpg"
"2800 Allyson Ct, Thousand Oaks, CA 91362","91362","Thousand Oaks","CA","3350000","5","6","5330","628.52","0.7044","acres","4/2/2024","1712041200000","https://zillow.com/homedetails/2800-Allyson-Ct-Thousand-Oaks-CA-91362/16430811_zpid/","34.20393","-118.820175","SINGLE_FAMILY","3387700","13212","https://photos.zillowstatic.com/fp/76226b73b59d755bb0db1d26cd49df3f-p_e.jpg"
"3583 Lang Ranch Pkwy, Thousand Oaks, CA 91362","91362","Thousand Oaks","CA","1555000","4","3","2400","647.92","6906","sqft","4/1/2024","1711954800000","https://zillow.com/homedetails/3583-Lang-Ranch-Pkwy-Thousand-Oaks-CA-91362/16430211_zpid/","34.213364","-118.810005","SINGLE_FAMILY","1484000","5674","https://photos.zillowstatic.com/fp/965cd13dac5bed2f3db6f0b2a9c48c9e-p_e.jpg"
"979 Blue Mountain Cir, Westlake Village, CA 91362","91362","Westlake Village","CA","1250000","3","3","2372","526.98","2372","sqft","3/29/2024","1711695600000","https://zillow.com/homedetails/979-Blue-Mountain-Cir-Westlake-Village-CA-91362/16488981_zpid/","34.18106","-118.79326","TOWNHOUSE","1138800","5252","https://photos.zillowstatic.com/fp/8cd91b9c3d9037dc460b740a1d573fdc-p_e.jpg"
"4177 Dan Wood Dr, Westlake Village, CA 91362","91362","Westlake Village","CA","1340000","3","3","2572","521","2572","sqft","3/29/2024","1711695600000","https://zillow.com/homedetails/4177-Dan-Wood-Dr-Westlake-Village-CA-91362/16489868_zpid/","34.19906","-118.81907","SINGLE_FAMILY","1356000","6168","https://photos.zillowstatic.com/fp/a8f9f3777fce2e439c4886d9a6199856-p_e.jpg"
"2830 Country Vista St, Thousand Oaks, CA 91362","91362","Thousand Oaks","CA","2250000","5","6","4625","486.49","0.5006657483930211","acres","3/28/2024","1711609200000","https://zillow.com/homedetails/2830-Country-Vista-St-Thousand-Oaks-CA-91362/52466285_zpid/","34.22507","-118.82487","SINGLE_FAMILY","2272100","8869","https://photos.zillowstatic.com/fp/0b1a596cd8a697e80c158b4b6796f0cb-p_e.jpg"
"330 N Via Colinas, Westlake Village, CA 91362","91362","Westlake Village","CA","710000","3","3","1332","533.03","1332","sqft","3/27/2024","1711522800000","https://zillow.com/homedetails/330-N-Via-Colinas-Westlake-Village-CA-91362/16488142_zpid/","34.161297","-118.80741","CONDO","718800","3957","https://photos.zillowstatic.com/fp/9c2c1b8422680620d730025c81a09919-p_e.jpg"
"1344 Hillcrest Dr #36, Thousand Oaks, CA 91362","91362","Thousand Oaks","CA","499000","2","2","868","574.88","","","3/26/2024","1711436400000","https://zillow.com/homedetails/1344-Hillcrest-Dr-36-Thousand-Oaks-CA-91362/16476972_zpid/","34.18077","-118.85464","CONDO","505200","2708","https://photos.zillowstatic.com/fp/5703eb8dc441b275f90b2b33e5057980-p_e.jpg"
"3886 Cresthaven Dr, Thousand Oaks, CA 91362","91362","Thousand Oaks","CA","3875000","5","5","5030","770.38","1.86","acres","3/25/2024","1711350000000","https://zillow.com/homedetails/3886-Cresthaven-Dr-Thousand-Oaks-CA-91362/16489246_zpid/","34.183094","-118.82516","SINGLE_FAMILY","3923900","15323","https://photos.zillowstatic.com/fp/39ba743bf7ff22ed4546282d12eec10d-p_e.jpg"
"2782 Rainfield Ave, Westlake Village, CA 91362","91362","Westlake Village","CA","2897250","5","6","5737","505.01","0.3320018365472911","acres","3/22/2024","1711090800000","https://zillow.com/homedetails/2782-Rainfield-Ave-Westlake-Village-CA-91362/52465606_zpid/","34.205746","-118.825584","SINGLE_FAMILY","2935600","11469","https://photos.zillowstatic.com/fp/eaafdc96401151df7c9bb934bd097e0e-p_e.jpg"
"2842 E Appalachian Ct, Thousand Oaks, CA 91362","91362","Thousand Oaks","CA","1267500","4","3","2460","515.24","7348.572","sqft","3/21/2024","1711004400000","https://zillow.com/homedetails/2842-E-Appalachian-Ct-Thousand-Oaks-CA-91362/16483765_zpid/","34.167065","-118.82456","SINGLE_FAMILY","1284400","6626","https://photos.zillowstatic.com/fp/591dc1e053f1eaa77cf34f537f91c602-p_e.jpg"
"823 Riverrock Cir, Westlake Village, CA 91362","91362","Westlake Village","CA","987500","3","3","1645","600.3","1645","sqft","3/21/2024","1711004400000","https://zillow.com/homedetails/823-Riverrock-Cir-Westlake-Village-CA-91362/16488379_zpid/","34.17634","-118.78987","TOWNHOUSE","","4111","https://photos.zillowstatic.com/fp/533f14385a68c3b84e8154ce7cf46f96-p_e.jpg"
"3582 Raincloud Ct, Thousand Oaks, CA 91362","91362","Thousand Oaks","CA","1400000","4","3","2603","537.84","10661","sqft","3/20/2024","1710918000000","https://zillow.com/homedetails/3582-Raincloud-Ct-Thousand-Oaks-CA-91362/16436732_zpid/","34.227764","-118.84471","SINGLE_FAMILY","1418900","6905","https://photos.zillowstatic.com/fp/d4401cb3bf30d628419f5b3cd52e6cea-p_e.jpg"
"5687 Starwood Ct, Thousand Oaks, CA 91362","91362","Thousand Oaks","CA","1130000","2","3","2000","565","2000","sqft","3/19/2024","1710831600000","https://zillow.com/homedetails/5687-Starwood-Ct-Thousand-Oaks-CA-91362/16488726_zpid/","34.185467","-118.7895","TOWNHOUSE","1145400","4499","https://photos.zillowstatic.com/fp/305ff3bd4b60b2fae0a859c92c53df68-p_e.jpg"
"1238 Wilder St, Thousand Oaks, CA 91362","91362","Thousand Oaks","CA","1675000","3","2","2112","793.09","0.7914141414141415","acres","3/18/2024","1710745200000","https://zillow.com/homedetails/1238-Wilder-St-Thousand-Oaks-CA-91362/16483521_zpid/","34.194122","-118.84015","SINGLE_FAMILY","1698200","5317","https://photos.zillowstatic.com/fp/3f072a40eb9abfad89127503b108b5ab-p_e.jpg"
"2538 McCrea Rd, Thousand Oaks, CA 91362","91362","Thousand Oaks","CA","1475000","4","3","2501","589.76","0.4426078971533517","acres","3/15/2024","1710486000000","https://zillow.com/homedetails/2538-McCrea-Rd-Thousand-Oaks-CA-91362/16436681_zpid/","34.226494","-118.83196","SINGLE_FAMILY","","5646","https://photos.zillowstatic.com/fp/f42deeae5c51f3946753268f86432f08-p_e.jpg"
"2311 Northpark St, Thousand Oaks, CA 91362","91362","Thousand Oaks","CA","830000","3","2","1323","627.36","6956","sqft","3/14/2024","1710399600000","https://zillow.com/homedetails/2311-Northpark-St-Thousand-Oaks-CA-91362/16429984_zpid/","34.211456","-118.83558","SINGLE_FAMILY","842100","4224","https://photos.zillowstatic.com/fp/b6fb59226ad4daff56e83e988287b25c-p_e.jpg"
"2947 Los Robles Rd, Thousand Oaks, CA 91362","91362","Thousand Oaks","CA","825000","3","1","1088","758.27","0.3047","acres","3/14/2024","1710399600000","https://zillow.com/homedetails/2947-Los-Robles-Rd-Thousand-Oaks-CA-91362/16477525_zpid/","34.16936","-118.83927","SINGLE_FAMILY","798300","3545","https://photos.zillowstatic.com/fp/593f964ffcad76be38c19ced3cbd5a7f-p_e.jpg"
"2384 Pleasant Way UNIT D, Thousand Oaks, CA 91362","91362","Thousand Oaks","CA","515000","2","2","907","567.81","907","sqft","3/14/2024","1710399600000","https://zillow.com/homedetails/2384-Pleasant-Way-UNIT-D-Thousand-Oaks-CA-91362/16477589_zpid/","34.17334","-118.843864","CONDO","522500","2857","https://photos.zillowstatic.com/fp/c34761889d60a9ca8b06e332eaaa7648-p_e.jpg"
"3415 Lang Ranch Pkwy, Thousand Oaks, CA 91362","91362","Thousand Oaks","CA","1350000","4","3","2713","497.6","8982.072","sqft","3/13/2024","1710313200000","https://zillow.com/homedetails/3415-Lang-Ranch-Pkwy-Thousand-Oaks-CA-91362/16430076_zpid/","34.213264","-118.81325","SINGLE_FAMILY","1369900","5922","https://photos.zillowstatic.com/fp/71c1c5bb38db743a6d2b43dd421c8829-p_e.jpg"
"2396 Pleasant Way UNIT H, Thousand Oaks, CA 91362","91362","Thousand Oaks","CA","415000","1","1","722","574.79","","","3/13/2024","1710313200000","https://zillow.com/homedetails/2396-Pleasant-Way-UNIT-H-Thousand-Oaks-CA-91362/16477693_zpid/","34.172764","-118.84355","CONDO","421100","2462","https://photos.zillowstatic.com/fp/30394a8fbd4f09c1aaae00f9eaa4d50a-p_e.jpg"
"1830 E Avenida De Las Flores, Thousand Oaks, CA 91362","91362","Thousand Oaks","CA","614539","3","2","1115","551.16","3920","sqft","3/12/2024","1710226800000","https://zillow.com/homedetails/1830-E-Avenida-De-Las-Flores-Thousand-Oaks-CA-91362/16432076_zpid/","34.207634","-118.84403","CONDO","624200","3549","https://photos.zillowstatic.com/fp/688b2c31b41c5e8d523bc5679ad3a98f-p_e.jpg"
"2462 Pleasant Way UNIT K, Thousand Oaks, CA 91362","91362","Thousand Oaks","CA","475000","2","2","907","523.7","907","sqft","3/8/2024","1709884800000","https://zillow.com/homedetails/2462-Pleasant-Way-UNIT-K-Thousand-Oaks-CA-91362/16477680_zpid/","34.172836","-118.84325","CONDO","482400","2857","https://photos.zillowstatic.com/fp/652ec4484c3c08eef1cbfc5cd4d5454f-p_e.jpg"
"495 Erbes Rd, Thousand Oaks, CA 91362","91362","Thousand Oaks","CA","925000","3","2","2017","458.6","0.509641873278237","acres","3/7/2024","1709798400000","https://zillow.com/homedetails/495-Erbes-Rd-Thousand-Oaks-CA-91362/16476636_zpid/","34.18364","-118.84863","SINGLE_FAMILY","939600","6076","https://photos.zillowstatic.com/fp/9380104e55d1d7f324472c462717aea1-p_e.jpg"
"1047 N Via Colinas, Westlake Village, CA 91362","91362","Westlake Village","CA","725000","2","3","1251","579.54","1251","sqft","3/7/2024","1709798400000","https://zillow.com/homedetails/1047-N-Via-Colinas-Westlake-Village-CA-91362/16488617_zpid/","34.16143","-118.808876","CONDO","736400","3782","https://photos.zillowstatic.com/fp/d5e1f397e4f345935d00ea1cfc602f29-p_e.jpg"
"3045 Blazing Star Dr, Thousand Oaks, CA 91362","91362","Thousand Oaks","CA","1275000","4","3","2902","439.35","2902","sqft","3/5/2024","1709625600000","https://zillow.com/homedetails/3045-Blazing-Star-Dr-Thousand-Oaks-CA-91362/52465660_zpid/","34.218834","-118.820854","CONDO","1295600","5917","https://photos.zillowstatic.com/fp/4056b48f996f41cedf6a9ec7cfe52279-p_e.jpg"
"603 Lone Oak Dr, Thousand Oaks, CA 91362","91362","Thousand Oaks","CA","1875000","5","3","4449","421.44","1.2305","acres","3/4/2024","1709539200000","https://zillow.com/homedetails/603-Lone-Oak-Dr-Thousand-Oaks-CA-91362/16476703_zpid/","34.18493","-118.84632","SINGLE_FAMILY","1905600","8950","https://photos.zillowstatic.com/fp/313c5ad3c6da762595f014b435ea40f7-p_e.jpg"
"2486 Pleasant Way UNIT C, Thousand Oaks, CA 91362","91362","Thousand Oaks","CA","390000","1","1","722","540.17","722","sqft","3/4/2024","1709539200000","https://zillow.com/homedetails/2486-Pleasant-Way-UNIT-C-Thousand-Oaks-CA-91362/16477648_zpid/","34.17317","-118.84333","CONDO","396400","2462","https://photos.zillowstatic.com/fp/da8f51d70823f7a27cdb60e54c7c3392-p_e.jpg"
"261 Quinta Vista Dr, Thousand Oaks, CA 91362","91362","Thousand Oaks","CA","815000","3","2","1300","626.92","6497","sqft","3/1/2024","1709280000000","https://zillow.com/homedetails/261-Quinta-Vista-Dr-Thousand-Oaks-CA-91362/16477325_zpid/","34.17589","-118.83868","SINGLE_FAMILY","828700","3810","https://photos.zillowstatic.com/fp/7b09db354cb64d8600209ae30c6a0fb9-p_e.jpg"
"2402 Pleasant Way UNIT P, Thousand Oaks, CA 91362","91362","Thousand Oaks","CA","485000","2","2","907","534.73","907","sqft","3/1/2024","1709280000000","https://zillow.com/homedetails/2402-Pleasant-Way-UNIT-P-Thousand-Oaks-CA-91362/16477703_zpid/","34.172546","-118.844215","CONDO","493300","2857","https://photos.zillowstatic.com/fp/808f79423777d70dfc9051c7ceaa1c4c-p_e.jpg"
"3326 Holly Grove St, Thousand Oaks, CA 91362","91362","Thousand Oaks","CA","620000","3","3","1280","484.38","1280","sqft","2/29/2024","1709193600000","https://zillow.com/homedetails/3326-Holly-Grove-St-Thousand-Oaks-CA-91362/16477838_zpid/","34.164978","-118.83518","TOWNHOUSE","630600","3706","https://photos.zillowstatic.com/fp/0a63186f066a41cfb83dbdcc9e1579f4-p_e.jpg"
"1745 Los Feliz Dr APT 14, Thousand Oaks, CA 91362","91362","Thousand Oaks","CA","430000","2","1","960","447.92","960","sqft","2/28/2024","1709107200000","https://zillow.com/homedetails/1745-Los-Feliz-Dr-APT-14-Thousand-Oaks-CA-91362/16476678_zpid/","34.178062","-118.85067","CONDO","437400","2821","https://photos.zillowstatic.com/fp/1aa8caccb826c0742a75b62d97fd143f-p_e.jpg"
"4278 Palomino Cir, Westlake Village, CA 91362","91362","Westlake Village","CA","3690000","6","6","6800","542.65","0.9214646464646464","acres","2/23/2024","1708675200000","https://zillow.com/homedetails/4278-Palomino-Cir-Westlake-Village-CA-91362/16489583_zpid/","34.18944","-118.81728","SINGLE_FAMILY","4166900","13784","https://photos.zillowstatic.com/fp/5e605e3b015203c8617c09ea6c3b4298-p_e.jpg"
"2735 Queens Way, Thousand Oaks, CA 91362","91362","Thousand Oaks","CA","1195000","4","2","2315","516.2","0.27130394857667584","acres","2/23/2024","1708675200000","https://zillow.com/homedetails/2735-Queens-Way-Thousand-Oaks-CA-91362/82966227_zpid/","34.21945","-118.82847","SINGLE_FAMILY","1216900","5110","https://photos.zillowstatic.com/fp/f00426acb756d5178b4c01c0ac6b37fe-p_e.jpg"
"1698 Miller Ranch Dr, Thousand Oaks, CA 91362","91362","Thousand Oaks","CA","5835000","5","7","6608","883.02","1.4933","acres","2/23/2024","1708675200000","https://zillow.com/homedetails/1698-Miller-Ranch-Dr-Thousand-Oaks-CA-91362/2059751776_zpid/","34.200893","-118.816475","SINGLE_FAMILY","5962700","23305","https://photos.zillowstatic.com/fp/ef6d1a57f3d9295fda6eb9d35c251a4a-p_e.jpg"
"3183 W Adirondack Ct, Thousand Oaks, CA 91362","91362","Thousand Oaks","CA","1650000","4","3","2251","733.01","7465","sqft","2/22/2024","1708588800000","https://zillow.com/homedetails/3183-W-Adirondack-Ct-Thousand-Oaks-CA-91362/16484016_zpid/","34.17046","-118.82757","SINGLE_FAMILY","1680600","6512","https://photos.zillowstatic.com/fp/780d531995362d3c9806af3ea501d286-p_e.jpg"
"2849 E Great Smokey Ct, Thousand Oaks, CA 91362","91362","Thousand Oaks","CA","1570000","3","3","2087","752.28","7200.468","sqft","2/21/2024","1708502400000","https://zillow.com/homedetails/2849-E-Great-Smokey-Ct-Thousand-Oaks-CA-91362/16483757_zpid/","34.166756","-118.82465","SINGLE_FAMILY","1599400","5042","https://photos.zillowstatic.com/fp/0646cbcb4c3c5edbbfc25a138c28cd75-p_e.jpg"
"2323 Chiquita Ln, Thousand Oaks, CA 91362","91362","Thousand Oaks","CA","200000","","","","","0.9799816345270891","acres","2/21/2024","1708502400000","https://zillow.com/homedetails/2323-Chiquita-Ln-Thousand-Oaks-CA-91362/64820534_zpid/","34.176037","-118.84367","LOT","","3205","https://maps.googleapis.com/maps/api/staticmap?mobile=false&sensor=true&maptype=satellite&size=575x242&zoom=17&center=34.1760368347168,-118.84367370605469&key=AIzaSyBJsNQO5ZeG-XAbqqWLKwG08fWITSxg33w&signature=2VCbk3dEoZW0JeHJ7H4F7SL0g1g="
"1832 Shady Brook Dr, Thousand Oaks, CA 91362","91362","Thousand Oaks","CA","930000","3","2","1994","466.4","6150","sqft","2/20/2024","1708416000000","https://zillow.com/homedetails/1832-Shady-Brook-Dr-Thousand-Oaks-CA-91362/16430876_zpid/","34.21164","-118.844475","SINGLE_FAMILY","947600","4777","https://photos.zillowstatic.com/fp/3171f9ac66a3822a6360d24e7f039b54-p_e.jpg"
"2426 Pleasant Way UNIT K, Thousand Oaks, CA 91362","91362","Thousand Oaks","CA","428000","2","1","907","471.89","906.048","sqft","2/20/2024","1708416000000","https://zillow.com/homedetails/2426-Pleasant-Way-UNIT-K-Thousand-Oaks-CA-91362/16477763_zpid/","34.171867","-118.843544","CONDO","448500","2754","https://photos.zillowstatic.com/fp/74d2cd2d9012f734a39b5d73c4677155-p_e.jpg"
"2671 Capella Way, Thousand Oaks, CA 91362","91362","Thousand Oaks","CA","1450000","5","3","2661","544.91","6024","sqft","2/16/2024","1708070400000","https://zillow.com/homedetails/2671-Capella-Way-Thousand-Oaks-CA-91362/16430737_zpid/","34.21584","-118.82215","SINGLE_FAMILY","1478700","5853","https://photos.zillowstatic.com/fp/e75320f739be8aadd29305e1d9083f4f-p_e.jpg"
"2903 Venezia Ln, Thousand Oaks, CA 91362","91362","Thousand Oaks","CA","1285000","4","3","2625","489.52","2625","sqft","2/15/2024","1707984000000","https://zillow.com/homedetails/2903-Venezia-Ln-Thousand-Oaks-CA-91362/54899940_zpid/","34.21896","-118.82474","SINGLE_FAMILY","1310700","5688","https://photos.zillowstatic.com/fp/b5ef21538af33a4b9f37da959f347da8-p_e.jpg"
"3378 Holly Grove St, Thousand Oaks, CA 91362","91362","Thousand Oaks","CA","560000","3","2","1180","474.58","1180","sqft","2/14/2024","1707897600000","https://zillow.com/homedetails/3378-Holly-Grove-St-Thousand-Oaks-CA-91362/16477814_zpid/","34.16437","-118.83428","CONDO","561100","3456","https://photos.zillowstatic.com/fp/05ac48e0bd4027e900f77a8f2da4ce1b-p_e.jpg"
"3084 E Adirondack Ct, Thousand Oaks, CA 91362","91362","Thousand Oaks","CA","1225000","3","2","1700","720.59","7400","sqft","2/14/2024","1707897600000","https://zillow.com/homedetails/3084-E-Adirondack-Ct-Thousand-Oaks-CA-91362/16483927_zpid/","34.170376","-118.82504","SINGLE_FAMILY","1249800","4645","https://photos.zillowstatic.com/fp/2fe139cdb73950585fa1bc485fc1c411-p_e.jpg"
"1090 Vista Ridge Ln, Westlake Village, CA 91362","91362","Westlake Village","CA","5250000","8","10","9890","530.84","3.16","acres","2/14/2024","1707897600000","https://zillow.com/homedetails/1090-Vista-Ridge-Ln-Westlake-Village-CA-91362/16484275_zpid/","34.182827","-118.812485","SINGLE_FAMILY","5356300","21023","https://photos.zillowstatic.com/fp/86352f7eb409fb809a62a227bd358aff-p_e.jpg"
"1392 La Jolla Dr, Thousand Oaks, CA 91362","91362","Thousand Oaks","CA","1995000","4","3","2417","825.4","0.46108815426997246","acres","2/13/2024","1707811200000","https://zillow.com/homedetails/1392-La-Jolla-Dr-Thousand-Oaks-CA-91362/16482653_zpid/","34.18789","-118.85502","SINGLE_FAMILY","2036300","6299","https://photos.zillowstatic.com/fp/60e09142dbbbb47e4cb83a3d198e4279-p_e.jpg"
"896 Tamlei Ave, Thousand Oaks, CA 91362","91362","Thousand Oaks","CA","3400000","5","6","5574","609.97","0.48085399449035815","acres","2/13/2024","1707811200000","https://zillow.com/homedetails/896-Tamlei-Ave-Thousand-Oaks-CA-91362/16482733_zpid/","34.1896","-118.84914","SINGLE_FAMILY","3469600","13618","https://photos.zillowstatic.com/fp/51da36160660d08dde8a13fd079ba9ca-p_e.jpg"
"3844 Sunset Knolls Dr, Thousand Oaks, CA 91362","91362","Thousand Oaks","CA","1175000","3","2","2124","553.2","8483","sqft","2/12/2024","1707724800000","https://zillow.com/homedetails/3844-Sunset-Knolls-Dr-Thousand-Oaks-CA-91362/16436766_zpid/","34.231472","-118.84282","SINGLE_FAMILY","1199300","5420","https://photos.zillowstatic.com/fp/30a78d88a7a4378756b4715be3dfc013-p_e.jpg"
"4161 Dan Wood Dr, Thousand Oaks, CA 91362","91362","Thousand Oaks","CA","1151888","3","3","2572","447.86","2572","sqft","2/12/2024","1707724800000","https://zillow.com/homedetails/4161-Dan-Wood-Dr-Thousand-Oaks-CA-91362/16489866_zpid/","34.19892","-118.81932","TOWNHOUSE","1458200","5391","https://photos.zillowstatic.com/fp/7c4eeb4d3a3f420224d8d312fba6183d-p_e.jpg"
"1676 Orinda Ct, Thousand Oaks, CA 91362","91362","Thousand Oaks","CA","530000","2","1","826","641.65","3920","sqft","2/9/2024","1707465600000","https://zillow.com/homedetails/1676-Orinda-Ct-Thousand-Oaks-CA-91362/16431818_zpid/","34.207054","-118.84844","TOWNHOUSE","542300","2889","https://photos.zillowstatic.com/fp/82e254188e2807ccd1400a2dd7db4e35-p_e.jpg"
"1744 Alder Wood Pl, Thousand Oaks, CA 91362","91362","Thousand Oaks","CA","875000","3","2","1427","613.17","6637","sqft","2/5/2024","1707120000000","https://zillow.com/homedetails/1744-Alder-Wood-Pl-Thousand-Oaks-CA-91362/16431741_zpid/","34.21928","-118.846436","SINGLE_FAMILY","896000","3889","https://photos.zillowstatic.com/fp/78f65a9c9c08775070a42d7d0d801a2b-p_e.jpg"
"5721 White Cloud Cir, Westlake Village, CA 91362","91362","Westlake Village","CA","3100000","5","5","4610","672.45","0.5400137741046832","acres","2/1/2024","1706774400000","https://zillow.com/homedetails/5721-White-Cloud-Cir-Westlake-Village-CA-91362/16487748_zpid/","34.18818","-118.78894","SINGLE_FAMILY","3177200","12460","https://photos.zillowstatic.com/fp/6fade5f4edf8168310739191ac366d7f-p_e.jpg"
"198 N Skyline Dr SPACE 58, Thousand Oaks, CA 91362","91362","Thousand Oaks","CA","195000","2","1","768","253.91","768","sqft","2/1/2024","1706774400000","https://zillow.com/homedetails/198-N-Skyline-Dr-SPACE-58-Thousand-Oaks-CA-91362/16504246_zpid/","34.170975","-118.83592","MANUFACTURED","199900","2489","https://photos.zillowstatic.com/fp/417e5f6e664dfeca335da76b971390f9-p_e.jpg"
"5262 Bridgetown Pl, Thousand Oaks, CA 91362","91362","Thousand Oaks","CA","4400000","4","5","5088","864.78","0.595821854912764","acres","1/31/2024","1706688000000","https://zillow.com/homedetails/5262-Bridgetown-Pl-Thousand-Oaks-CA-91362/16488949_zpid/","34.1912","-118.79839","SINGLE_FAMILY","4510500","17689","https://photos.zillowstatic.com/fp/b2bcab0f913f606999e20ca899d42aaf-p_e.jpg"
"300 Makenzie Ct, Thousand Oaks, CA 91362","91362","Thousand Oaks","CA","1250000","4","2","2049","610.05","0.2553489439853076","acres","1/31/2024","1706688000000","https://zillow.com/homedetails/300-Makenzie-Ct-Thousand-Oaks-CA-91362/54900337_zpid/","34.178898","-118.844","SINGLE_FAMILY","1281400","5107","https://photos.zillowstatic.com/fp/e0e4295d5010d18bed4c24ccd5e9834b-p_e.jpg"
"5136 Oxley Pl, Westlake Village, CA 91362","91362","Westlake Village","CA","7000000","5","6","7500","933.33","0.6708448117539026","acres","1/30/2024","1706601600000","https://zillow.com/homedetails/5136-Oxley-Pl-Westlake-Village-CA-91362/16488941_zpid/","34.192577","-118.801414","SINGLE_FAMILY","7177400","28148","https://photos.zillowstatic.com/fp/9f4fed019f1003fee6ec4cd6921399e8-p_e.jpg"
"3123 E Hillcrest Dr, Thousand Oaks, CA 91362","91362","Thousand Oaks","CA","805000","3","3","1773","454.03","1773","sqft","1/26/2024","1706256000000","https://zillow.com/homedetails/3123-E-Hillcrest-Dr-Thousand-Oaks-CA-91362/16484437_zpid/","34.171986","-118.83191","TOWNHOUSE","826100","4142","https://photos.zillowstatic.com/fp/fc829f49c31d320eea1b9babfe29dd30-p_e.jpg"
"367 Westlake Vista Ln, Thousand Oaks, CA 91362","91362","Thousand Oaks","CA","800000","3","3","1426","561.01","1426","sqft","1/26/2024","1706256000000","https://zillow.com/homedetails/367-Westlake-Vista-Ln-Thousand-Oaks-CA-91362/54900378_zpid/","34.176117","-118.837","TOWNHOUSE","821000","3833","https://photos.zillowstatic.com/fp/fda75a57de090429af952ceb6af2db51-p_e.jpg"
"510 Rosario Dr, Thousand Oaks, CA 91362","91362","Thousand Oaks","CA","952000","3","2","1655","575.23","0.3599862258953168","acres","1/25/2024","1706169600000","https://zillow.com/homedetails/510-Rosario-Dr-Thousand-Oaks-CA-91362/16476480_zpid/","34.18469","-118.8579","SINGLE_FAMILY","977100","4450","https://photos.zillowstatic.com/fp/662a7b559007785423f8f042ee4c4b7f-p_e.jpg"
"2932 Morningside Dr, Thousand Oaks, CA 91362","91362","Thousand Oaks","CA","975000","3","2","1551","628.63","6920","sqft","1/24/2024","1706083200000","https://zillow.com/homedetails/2932-Morningside-Dr-Thousand-Oaks-CA-91362/16431132_zpid/","34.217995","-118.842705","SINGLE_FAMILY","1001000","4061","https://photos.zillowstatic.com/fp/fe5140db0aff31c6bd1b9f1dd5b887ac-p_e.jpg"
"1835 Gammon Ct, Thousand Oaks, CA 91362","91362","Thousand Oaks","CA","1240000","4","3","3076","403.12","6399","sqft","1/24/2024","1706083200000","https://zillow.com/homedetails/1835-Gammon-Ct-Thousand-Oaks-CA-91362/16432578_zpid/","34.22407","-118.84518","SINGLE_FAMILY","1273000","5715","https://photos.zillowstatic.com/fp/6dacd73219826575108d31be9ce943db-p_e.jpg"
"5621 Roundtree Pl, Thousand Oaks, CA 91362","91362","Thousand Oaks","CA","1000000","3","3","1645","607.9","1646.568","sqft","1/24/2024","1706083200000","https://zillow.com/homedetails/5621-Roundtree-Pl-Thousand-Oaks-CA-91362/16489009_zpid/","34.181595","-118.79112","TOWNHOUSE","1060600","4333","https://photos.zillowstatic.com/fp/d3e0ff2b3ea648fd052b11d38c8fd6bb-p_e.jpg"
"2986 Santiago St, Westlake Village, CA 91362","91362","Westlake Village","CA","1135000","3","2","1414","802.69","7425","sqft","1/23/2024","1705996800000","https://zillow.com/homedetails/2986-Santiago-St-Westlake-Village-CA-91362/16483798_zpid/","34.16822","-118.82206","SINGLE_FAMILY","1165500","4774","https://photos.zillowstatic.com/fp/620bedbf3a42222875312667a147e593-p_e.jpg"
"5745 Hidden Brook Ct, Thousand Oaks, CA 91362","91362","Thousand Oaks","CA","3430000","5","5","5097","672.94","0.4764462809917355","acres","1/23/2024","1705996800000","https://zillow.com/homedetails/5745-Hidden-Brook-Ct-Thousand-Oaks-CA-91362/16487841_zpid/","34.19363","-118.78797","SINGLE_FAMILY","3522100","13812","https://photos.zillowstatic.com/fp/ef4190796d0f7e37714f0c53d97cdaa8-p_e.jpg"
"909 Westbend Rd, Thousand Oaks, CA 91362","91362","Thousand Oaks","CA","3875000","5","6","6339","611.3","1.63","acres","1/18/2024","1705564800000","https://zillow.com/homedetails/909-Westbend-Rd-Thousand-Oaks-CA-91362/16484262_zpid/","34.177383","-118.813995","SINGLE_FAMILY","","16817","https://photos.zillowstatic.com/fp/7d14dd39652dd77042fae2b46fd13c30-p_e.jpg"
"606 N Via Colinas, Westlake Village, CA 91362","91362","Westlake Village","CA","560000","2","1","856","654.21","856","sqft","1/17/2024","1705478400000","https://zillow.com/homedetails/606-N-Via-Colinas-Westlake-Village-CA-91362/16488356_zpid/","34.16438","-118.80559","CONDO","585400","2996","https://photos.zillowstatic.com/fp/ebf9d66391d3a01d887c4f478aca283a-p_e.jpg"
"1717 Royal Saint George Dr, Thousand Oaks, CA 91362","91362","Thousand Oaks","CA","1350000","3","3","2196","614.75","6054","sqft","1/17/2024","1705478400000","https://zillow.com/homedetails/1717-Royal-Saint-George-Dr-Thousand-Oaks-CA-91362/2070025547_zpid/","34.194744","-118.81248","SINGLE_FAMILY","1386700","5070","https://photos.zillowstatic.com/fp/357327bbf1952775ebeddbfdb90a0b3c-p_e.jpg"
"1575 E Hillcrest Dr, Thousand Oaks, CA 91362","91362","Thousand Oaks","CA","1350000","4","3","3212","420.3","0.6355371900826446","acres","1/16/2024","1705392000000","https://zillow.com/homedetails/1575-E-Hillcrest-Dr-Thousand-Oaks-CA-91362/54900328_zpid/","34.18296","-118.850266","SINGLE_FAMILY","1387000","6900","https://photos.zillowstatic.com/fp/78049dfd0ab7daae59601e5528f090ea-p_e.jpg"
"3355 Holly Grove St, Thousand Oaks, CA 91362","91362","Thousand Oaks","CA","595000","3","3","1280","464.84","1280","sqft","1/11/2024","1704960000000","https://zillow.com/homedetails/3355-Holly-Grove-St-Thousand-Oaks-CA-91362/16477876_zpid/","34.165455","-118.83462","TOWNHOUSE","612000","3717","https://photos.zillowstatic.com/fp/77da11df1aa0cbe93683c5389da17b51-p_e.jpg"
"1821 E Avenida De Las Flores, Thousand Oaks, CA 91362","91362","Thousand Oaks","CA","600000","3","2","1152","520.83","3920","sqft","1/11/2024","1704960000000","https://zillow.com/homedetails/1821-E-Avenida-De-Las-Flores-Thousand-Oaks-CA-91362/2054626635_zpid/","34.207993","-118.84545","TOWNHOUSE","617100","3606","https://photos.zillowstatic.com/fp/e7babe3910b8006bcb24c402d9b93298-p_e.jpg"
"3220 N Allegheny Ct, Westlake Village, CA 91362","91362","Westlake Village","CA","1475000","4","3","2434","606","7522","sqft","1/10/2024","1704873600000","https://zillow.com/homedetails/3220-N-Allegheny-Ct-Westlake-Village-CA-91362/16484043_zpid/","34.170216","-118.82927","SINGLE_FAMILY","1517500","6053","https://photos.zillowstatic.com/fp/7f620770d6183e10d2a1b9d707789ce3-p_e.jpg"
"2912 Woodflower St, Thousand Oaks, CA 91362","91362","Thousand Oaks","CA","1600000","5","5","3609","443.34","9765","sqft","1/9/2024","1704787200000","https://zillow.com/homedetails/2912-Woodflower-St-Thousand-Oaks-CA-91362/52466125_zpid/","34.223236","-118.8234","SINGLE_FAMILY","1646400","7899","https://photos.zillowstatic.com/fp/2022ef1a1cb1dfb81525d1f8bc480581-p_e.jpg"
"1345 La Jolla Dr, Thousand Oaks, CA 91362","91362","Thousand Oaks","CA","1745000","4","2","2679","651.36","0.5555555555555556","acres","1/3/2024","1704268800000","https://zillow.com/homedetails/1345-La-Jolla-Dr-Thousand-Oaks-CA-91362/16482647_zpid/","34.188522","-118.85598","SINGLE_FAMILY","1798000","6229","https://photos.zillowstatic.com/fp/769d1a9ffba8ce1ba3e03728ef43ead5-p_e.jpg"
