"address","zipCode","city","state","price","bed","bath","sqft","pricePerSf","lotArea","lotAreaType","dateSold","dateSoldNumeric","zillowUrl","latitude","longitude","homeType","zestimate","rentZestimate","imageUrl"
"2105 Marsh Brook Rd, Thousand Oaks, CA 91361","91361","Thousand Oaks","CA","6830000","4","6","6099","1119.86","1.22","acres","9/5/2024","1725519600000","https://zillow.com/homedetails/2105-Marsh-Brook-Rd-Thousand-Oaks-CA-91361/16490774_zpid/","34.139072","-118.87927","SINGLE_FAMILY","","27862","https://photos.zillowstatic.com/fp/7374a26e5e81f95a927bae7bd623c9e3-p_e.jpg"
"454 Upper Lake Rd, Thousand Oaks, CA 91361","91361","Thousand Oaks","CA","2925000","3","5","3782","773.4","0.2812213039485767","acres","9/4/2024","1725433200000","https://zillow.com/homedetails/454-Upper-Lake-Rd-Thousand-Oaks-CA-91361/16490744_zpid/","34.136486","-118.86828","SINGLE_FAMILY","2838100","11141","https://photos.zillowstatic.com/fp/41e90ce0b3df3c8132e3528a5804d656-p_e.jpg"
"2094 Bridgegate Ct, Westlake Village, CA 91361","91361","Westlake Village","CA","1480000","4","3","2490","594.38","8003","sqft","8/30/2024","1725001200000","https://zillow.com/homedetails/2094-Bridgegate-Ct-Westlake-Village-CA-91361/16492717_zpid/","34.146183","-118.840454","SINGLE_FAMILY","1565600","7792","https://photos.zillowstatic.com/fp/37eff7e526fb4d4957595c0c2afcee0a-p_e.jpg"
"2387 Leeward Cir, Westlake Village, CA 91361","91361","Westlake Village","CA","2075000","3","2","1641","1264.47","5375","sqft","8/30/2024","1725001200000","https://zillow.com/homedetails/2387-Leeward-Cir-Westlake-Village-CA-91361/16493548_zpid/","34.142345","-118.83285","SINGLE_FAMILY","2075100","5434","https://photos.zillowstatic.com/fp/343509d0466eaacae827aaf28bbbacd5-p_e.jpg"
"32140 Canyon Crest Ct, Westlake Village, CA 91361","91361","Westlake Village","CA","1004250","3","3","2263","443.77","2099","sqft","8/30/2024","1725001200000","https://zillow.com/homedetails/32140-Canyon-Crest-Ct-Westlake-Village-CA-91361/19891076_zpid/","34.134666","-118.82059","TOWNHOUSE","1004300","5542","https://photos.zillowstatic.com/fp/b4491667d55e80421d57f05da95aacaf-p_e.jpg"
"3435 Three Springs Dr, Westlake Village, CA 91361","91361","Westlake Village","CA","1941000","5","4","3528","550.17","8884","sqft","8/30/2024","1725001200000","https://zillow.com/homedetails/3435-Three-Springs-Dr-Westlake-Village-CA-91361/19892299_zpid/","34.136658","-118.83485","SINGLE_FAMILY","1928400","9899","https://photos.zillowstatic.com/fp/780308039540a45d8657e7113c17b74c-p_e.jpg"
"32050 Grenville Ct, Westlake Village, CA 91361","91361","Westlake Village","CA","1321000","4","2","1737","760.51","9159","sqft","8/30/2024","1725001200000","https://zillow.com/homedetails/32050-Grenville-Ct-Westlake-Village-CA-91361/19892878_zpid/","34.142902","-118.82061","SINGLE_FAMILY","1321000","6519","https://photos.zillowstatic.com/fp/88976ba928f041c4842969b76ae88e2f-p_e.jpg"
"4029 Whitesail Cir, Westlake Village, CA 91361","91361","Westlake Village","CA","3480000","3","3","2432","1430.92","5214","sqft","8/29/2024","1724914800000","https://zillow.com/homedetails/4029-Whitesail-Cir-Westlake-Village-CA-91361/19891890_zpid/","34.143646","-118.827034","SINGLE_FAMILY","3480100","7364","https://photos.zillowstatic.com/fp/63ab1f40e73ab4ec6677a3119799d2d3-p_e.jpg"
"2528 Northshore Ln, Westlake Village, CA 91361","91361","Westlake Village","CA","1540000","2","2","1591","967.94","5362","sqft","8/27/2024","1724742000000","https://zillow.com/homedetails/2528-Northshore-Ln-Westlake-Village-CA-91361/16493208_zpid/","34.14947","-118.83204","SINGLE_FAMILY","1540300","4325","https://photos.zillowstatic.com/fp/33bd8d7f8b92986253e57f97753b4ab8-p_e.jpg"
"2106 Crespi Ln, Westlake Village, CA 91361","91361","Westlake Village","CA","625000","2","2","1402","445.79","6534","sqft","8/26/2024","1724655600000","https://zillow.com/homedetails/2106-Crespi-Ln-Westlake-Village-CA-91361/16492817_zpid/","34.148502","-118.83995","CONDO","776400","4188","https://maps.googleapis.com/maps/api/staticmap?mobile=false&sensor=true&maptype=satellite&size=575x242&zoom=17&center=34.148502349853516,-118.83995056152344&key=AIzaSyBJsNQO5ZeG-XAbqqWLKwG08fWITSxg33w&signature=9mi4NhRfKtazI8WDn9aqbDqTJUk="
"3038 Winding Ln, Westlake Village, CA 91361","91361","Westlake Village","CA","1675000","3","3","2752","608.65","3920","sqft","8/23/2024","1724396400000","https://zillow.com/homedetails/3038-Winding-Ln-Westlake-Village-CA-91361/16490555_zpid/","34.149963","-118.82064","TOWNHOUSE","1675000","6978","https://photos.zillowstatic.com/fp/41d19fd82ddb931cc1f3f258d3ffc5ed-p_e.jpg"
"44 Old Castle Rd, Westlake Village, CA 91361","91361","Westlake Village","CA","735000","2","2","1440","510.42","6673","sqft","8/22/2024","1724310000000","https://zillow.com/homedetails/44-Old-Castle-Rd-Westlake-Village-CA-91361/19891160_zpid/","34.130787","-118.81861","MANUFACTURED","735100","3184","https://photos.zillowstatic.com/fp/06cc5d57195fe610ca3bc5ab413f1493-p_e.jpg"
"1600 Vista Oaks Way, Thousand Oaks, CA 91361","91361","Thousand Oaks","CA","3241000","5","6","5469","592.61","0.5105601469237833","acres","8/20/2024","1724137200000","https://zillow.com/homedetails/1600-Vista-Oaks-Way-Thousand-Oaks-CA-91361/16471442_zpid/","34.146023","-118.85636","SINGLE_FAMILY","3241400","13045","https://photos.zillowstatic.com/fp/90bc5e22e864b845cd51820c7a4dfe46-p_e.jpg"
"1246 Kirkford Way, Westlake Village, CA 91361","91361","Westlake Village","CA","524500","2","1","920","570.11","3049","sqft","8/20/2024","1724137200000","https://zillow.com/homedetails/1246-Kirkford-Way-Westlake-Village-CA-91361/16490419_zpid/","34.148445","-118.82561","CONDO","521700","3023","https://photos.zillowstatic.com/fp/47c1a786400e0b0038d1feedae8c0b1b-p_e.jpg"
"885 Blue Spring Dr, Westlake Village, CA 91361","91361","Westlake Village","CA","1653160","5","4","3128","528.5","7784","sqft","8/19/2024","1724050800000","https://zillow.com/homedetails/885-Blue-Spring-Dr-Westlake-Village-CA-91361/16492393_zpid/","34.15457","-118.83762","SINGLE_FAMILY","1747900","6970","https://photos.zillowstatic.com/fp/d56fc432e0d21b36fad042968a191a26-p_e.jpg"
"2047 Bridgegate Ct, Thousand Oaks, CA 91361","91361","Thousand Oaks","CA","2100000","4","3","2510","836.65","8120","sqft","8/16/2024","1723791600000","https://zillow.com/homedetails/2047-Bridgegate-Ct-Thousand-Oaks-CA-91361/16492681_zpid/","34.14681","-118.84138","SINGLE_FAMILY","2100200","7743","https://photos.zillowstatic.com/fp/f7b85c755998bc8064d64f992a8da0aa-p_e.jpg"
"1417 S Eastwind Cir, Westlake Village, CA 91361","91361","Westlake Village","CA","3400000","3","3","2621","1297.21","4420","sqft","8/16/2024","1723791600000","https://zillow.com/homedetails/1417-S-Eastwind-Cir-Westlake-Village-CA-91361/16493139_zpid/","34.146008","-118.82782","SINGLE_FAMILY","3400300","7266","https://photos.zillowstatic.com/fp/ba36330fe7e596adba0d51ec44ddcbcc-p_e.jpg"
"1664 Valecroft Ave, Westlake Village, CA 91361","91361","Westlake Village","CA","1445682","4","3","2840","509.04","0.27240000000000003","acres","8/15/2024","1723705200000","https://zillow.com/homedetails/1664-Valecroft-Ave-Westlake-Village-CA-91361/16491772_zpid/","34.152954","-118.85306","SINGLE_FAMILY","1445800","7215","https://photos.zillowstatic.com/fp/b6632fcdbdfdfb055b4164d24bc5ebe4-p_e.jpg"
"1138 Stonewall Cir, Westlake Village, CA 91361","91361","Westlake Village","CA","825000","3","2","1416","582.63","6098","sqft","8/14/2024","1723618800000","https://zillow.com/homedetails/1138-Stonewall-Cir-Westlake-Village-CA-91361/16490180_zpid/","34.149483","-118.82651","CONDO","825200","4235","https://photos.zillowstatic.com/fp/c7e4954e7241611904fe920ce3f46854-p_e.jpg"
"2639 Hartland Cir, Westlake Village, CA 91361","91361","Westlake Village","CA","810000","2","2","1149","704.96","6098","sqft","8/13/2024","1723532400000","https://zillow.com/homedetails/2639-Hartland-Cir-Westlake-Village-CA-91361/16490102_zpid/","34.151516","-118.828445","CONDO","810300","3541","https://photos.zillowstatic.com/fp/e67b41c9ed36eb8082caccdc33b17b65-p_e.jpg"
"1653 S Elmsford Pl, Westlake Village, CA 91361","91361","Westlake Village","CA","1750000","4","3","2490","702.81","6610","sqft","8/12/2024","1723446000000","https://zillow.com/homedetails/1653-S-Elmsford-Pl-Westlake-Village-CA-91361/16491067_zpid/","34.144325","-118.85396","SINGLE_FAMILY","1750400","6306","https://photos.zillowstatic.com/fp/06cd0db53a28aa4288454b28e3436b7b-p_e.jpg"
"236 Green Heath Pl, Thousand Oaks, CA 91361","91361","Thousand Oaks","CA","581500","3","3","1452","400.48","4356","sqft","8/8/2024","1723100400000","https://zillow.com/homedetails/236-Green-Heath-Pl-Thousand-Oaks-CA-91361/16484673_zpid/","34.1748","-118.8816","TOWNHOUSE","583200","3883","https://photos.zillowstatic.com/fp/b5e2ed45d7af094cc577c088761550ae-p_e.jpg"
"1647 E Brentford Ave, Westlake Village, CA 91361","91361","Westlake Village","CA","1725000","4","3","2386","722.97","6500","sqft","8/6/2024","1722927600000","https://zillow.com/homedetails/1647-E-Brentford-Ave-Westlake-Village-CA-91361/16491205_zpid/","34.1466","-118.848816","SINGLE_FAMILY","1725400","6407","https://photos.zillowstatic.com/fp/11d98c592bd47be56f1eff98c6ce693d-p_e.jpg"
"32152 Beachfront Ln, Westlake Village, CA 91361","91361","Westlake Village","CA","1475000","3","2","1854","795.58","3514","sqft","8/6/2024","1722927600000","https://zillow.com/homedetails/32152-Beachfront-Ln-Westlake-Village-CA-91361/19891506_zpid/","34.145462","-118.82549","SINGLE_FAMILY","1621800","5920","https://photos.zillowstatic.com/fp/eb0c911869fb55a0970efefaf0e3bd27-p_e.jpg"
"2351 Topsail Cir, Westlake Village, CA 91361","91361","Westlake Village","CA","1715000","4","2","2161","793.61","8904","sqft","8/5/2024","1722841200000","https://zillow.com/homedetails/2351-Topsail-Cir-Westlake-Village-CA-91361/16493508_zpid/","34.14278","-118.83421","SINGLE_FAMILY","1715700","6446","https://photos.zillowstatic.com/fp/81bbe9948d6dcd903333742b4c30836a-p_e.jpg"
"1150 S Westlake Blvd UNIT B, Westlake, CA 91361","91361","Westlake","CA","1175000","2","3","1936","606.92","3920","sqft","8/5/2024","1722841200000","https://zillow.com/homedetails/1150-S-Westlake-Blvd-UNIT-B-Westlake-CA-91361/16493619_zpid/","34.149662","-118.83334","CONDO","1175000","4684","https://photos.zillowstatic.com/fp/ec02ba3e0d87c86873b5eec08dfdf39a-p_e.jpg"
"4368 Deerpark Ct, Westlake Village, CA 91361","91361","Westlake Village","CA","1994000","4","3","2412","826.7","5900","sqft","8/5/2024","1722841200000","https://zillow.com/homedetails/4368-Deerpark-Ct-Westlake-Village-CA-91361/19893099_zpid/","34.145107","-118.81032","SINGLE_FAMILY","1994700","7615","https://photos.zillowstatic.com/fp/cea04fe88e4b103c6c438031f2bc9602-p_e.jpg"
"1154 Landsburn Cir, Westlake Village, CA 91361","91361","Westlake Village","CA","560000","2","1","924","606.06","3049","sqft","8/2/2024","1722582000000","https://zillow.com/homedetails/1154-Landsburn-Cir-Westlake-Village-CA-91361/16490312_zpid/","34.14829","-118.82312","CONDO","560100","3028","https://photos.zillowstatic.com/fp/9ca0293bb8c268ec0d227bb1efd6b6a3-p_e.jpg"
"2467 Swanfield Ct, Thousand Oaks, CA 91361","91361","Thousand Oaks","CA","2683500","3","3","3301","812.94","3301","sqft","8/2/2024","1722582000000","https://zillow.com/homedetails/2467-Swanfield-Ct-Thousand-Oaks-CA-91361/16490966_zpid/","34.135315","-118.887024","CONDO","2684100","7201","https://photos.zillowstatic.com/fp/0174a09ce93e4e45c18447c2ca2e0c95-p_e.jpg"
"4046 Whitesail Cir, Westlake Village, CA 91361","91361","Westlake Village","CA","2750000","3","2","1970","1395.94","5301","sqft","8/2/2024","1722582000000","https://zillow.com/homedetails/4046-Whitesail-Cir-Westlake-Village-CA-91361/19891879_zpid/","34.143524","-118.8263","SINGLE_FAMILY","2750700","6190","https://photos.zillowstatic.com/fp/cb926b4213bc917757f7a7f067802032-p_e.jpg"
"921 Ranch House Rd, Westlake Village, CA 91361","91361","Westlake Village","CA","1445000","4","3","2824","511.69","7524","sqft","7/31/2024","1722409200000","https://zillow.com/homedetails/921-Ranch-House-Rd-Westlake-Village-CA-91361/16492367_zpid/","34.154503","-118.838524","SINGLE_FAMILY","1445700","7482","https://photos.zillowstatic.com/fp/14199fdcc5491bec7ad583e0501320e3-p_e.jpg"
"2335 Bayside Ct, Westlake Village, CA 91361","91361","Westlake Village","CA","1618000","3","2","1991","812.66","9807","sqft","7/30/2024","1722322800000","https://zillow.com/homedetails/2335-Bayside-Ct-Westlake-Village-CA-91361/16492499_zpid/","34.14098","-118.834755","SINGLE_FAMILY","1618600","5602","https://photos.zillowstatic.com/fp/839f1be8951fe0c7158df281c3fe6345-p_e.jpg"
"2257 Glastonbury Rd, Westlake Village, CA 91361","91361","Westlake Village","CA","1302900","4","2","2038","639.3","9899","sqft","7/30/2024","1722322800000","https://zillow.com/homedetails/2257-Glastonbury-Rd-Westlake-Village-CA-91361/16492571_zpid/","34.144802","-118.83686","SINGLE_FAMILY","1734800","6163","https://photos.zillowstatic.com/fp/03d5d6b48452f98ee1998f571cebfd8e-p_e.jpg"
"4512 Sevenoaks Ct, Westlake Village, CA 91361","91361","Westlake Village","CA","1670000","4","2","2372","704.05","8395","sqft","7/30/2024","1722322800000","https://zillow.com/homedetails/4512-Sevenoaks-Ct-Westlake-Village-CA-91361/19892739_zpid/","34.147034","-118.81103","SINGLE_FAMILY","1670700","6035","https://photos.zillowstatic.com/fp/ba9428076326ff64c2ce15616f2f351a-p_e.jpg"
"2063 Dewberry Ct, Westlake Village, CA 91361","91361","Westlake Village","CA","1224000","4","2","1550","789.68","0.3055555555555556","acres","7/29/2024","1722236400000","https://zillow.com/homedetails/2063-Dewberry-Ct-Westlake-Village-CA-91361/16492029_zpid/","34.152733","-118.84018","SINGLE_FAMILY","1224300","5977","https://photos.zillowstatic.com/fp/69708066d3ba05d5d72f85021be9f930-p_e.jpg"
"1085 S Triunfo Canyon Rd, Westlake Village, CA 91361","91361","Westlake Village","CA","1105000","4","3","2491","443.6","7862","sqft","7/25/2024","1721890800000","https://zillow.com/homedetails/1085-S-Triunfo-Canyon-Rd-Westlake-Village-CA-91361/16491356_zpid/","34.150936","-118.84069","SINGLE_FAMILY","1263800","6681","https://photos.zillowstatic.com/fp/7eefaac60f9e32b9701d37f86855fbae-p_e.jpg"
"1656 Devonshire Ct, Thousand Oaks, CA 91361","91361","Thousand Oaks","CA","1650000","5","3","2458","671.28","8463.708","sqft","7/24/2024","1721804400000","https://zillow.com/homedetails/1656-Devonshire-Ct-Thousand-Oaks-CA-91361/16492630_zpid/","34.14299","-118.84661","SINGLE_FAMILY","1650600","7194","https://photos.zillowstatic.com/fp/b4b0807ffd321bc27d04157ad1d19c12-p_e.jpg"
"2608 Lakewood Pl, Westlake Village, CA 91361","91361","Westlake Village","CA","1250000","2","2","1231","1015.43","3078","sqft","7/24/2024","1721804400000","https://zillow.com/homedetails/2608-Lakewood-Pl-Westlake-Village-CA-91361/16493276_zpid/","34.14953","-118.82956","TOWNHOUSE","1252500","3863","https://photos.zillowstatic.com/fp/b34c235075ac9726b4c443cc150483a3-p_e.jpg"
"32138 Canyon Crest Ct, Westlake Village, CA 91361","91361","Westlake Village","CA","1200000","4","3","2618","458.37","2466","sqft","7/24/2024","1721804400000","https://zillow.com/homedetails/32138-Canyon-Crest-Ct-Westlake-Village-CA-91361/19891077_zpid/","34.134583","-118.8206","TOWNHOUSE","1200300","6367","https://photos.zillowstatic.com/fp/2d303025daccc294b5d70e7a66b47f11-p_e.jpg"
"1135 Glenbridge Cir, Westlake Village, CA 91361","91361","Westlake Village","CA","712000","2","2","1149","619.67","6098","sqft","7/23/2024","1721718000000","https://zillow.com/homedetails/1135-Glenbridge-Cir-Westlake-Village-CA-91361/16490203_zpid/","34.150375","-118.82927","CONDO","712400","3541","https://photos.zillowstatic.com/fp/219371c814491de8884a485dada7b061-p_e.jpg"
"2842 Ladbrook Way, Thousand Oaks, CA 91361","91361","Thousand Oaks","CA","4800000","4","5","5095","942.1","0.4881542699724518","acres","7/23/2024","1721718000000","https://zillow.com/homedetails/2842-Ladbrook-Way-Thousand-Oaks-CA-91361/16490846_zpid/","34.127647","-118.89171","SINGLE_FAMILY","4800800","18473","https://photos.zillowstatic.com/fp/809f781c98c798f57df33028bc59362d-p_e.jpg"
"3939 Trowbridge Ct, Westlake Village, CA 91361","91361","Westlake Village","CA","1442500","4","3","2412","598.05","6297","sqft","7/23/2024","1721718000000","https://zillow.com/homedetails/3939-Trowbridge-Ct-Westlake-Village-CA-91361/19892945_zpid/","34.141205","-118.817924","SINGLE_FAMILY","1447100","7531","https://photos.zillowstatic.com/fp/542f6778c7b8f1556085610061aae76f-p_e.jpg"
"231 Garden Dr, Thousand Oaks, CA 91361","91361","Thousand Oaks","CA","6550000","5","8","","","","","7/19/2024","1721372400000","https://zillow.com/homedetails/231-Garden-Dr-Thousand-Oaks-CA-91361/16490823_zpid/","34.12641","-118.88179","SINGLE_FAMILY","6562400","27151","https://photos.zillowstatic.com/fp/c1a3e57d460ab998ddd3a65317193053-p_e.jpg"
"1506 Devonshire Ave, Westlake Village, CA 91361","91361","Westlake Village","CA","1695000","4","3","2305","735.36","7910.496","sqft","7/19/2024","1721372400000","https://zillow.com/homedetails/1506-Devonshire-Ave-Westlake-Village-CA-91361/16491174_zpid/","34.14606","-118.84899","SINGLE_FAMILY","1694800","6309","https://photos.zillowstatic.com/fp/ba2502b80681ecb780c686db76028d91-p_e.jpg"
"32159 Sailview Ln, Westlake Village, CA 91361","91361","Westlake Village","CA","1150000","3","3","2076","553.95","3725","sqft","7/19/2024","1721372400000","https://zillow.com/homedetails/32159-Sailview-Ln-Westlake-Village-CA-91361/19891590_zpid/","34.143986","-118.823456","TOWNHOUSE","1150900","6775","https://photos.zillowstatic.com/fp/e071c1acc8ee0aa112a1514d7fb30739-p_e.jpg"
"2138 Marshbrook Rd, Thousand Oaks, CA 91361","91361","Thousand Oaks","CA","6250000","6","7","7921","789.04","1.1383","acres","7/19/2024","1721372400000","https://zillow.com/homedetails/2138-Marshbrook-Rd-Thousand-Oaks-CA-91361/59693584_zpid/","34.13825","-118.87841","SINGLE_FAMILY","6266700","24319","https://photos.zillowstatic.com/fp/dc4f13c586d961f68c79c0ec5e7ce5c5-p_e.jpg"
"1936 Elmsbury Rd, Westlake Village, CA 91361","91361","Westlake Village","CA","2100000","5","3","3750","560","8431","sqft","7/15/2024","1721026800000","https://zillow.com/homedetails/1936-Elmsbury-Rd-Westlake-Village-CA-91361/16492516_zpid/","34.140015","-118.83585","SINGLE_FAMILY","2099700","8199","https://photos.zillowstatic.com/fp/741363b65b6a2d13cff188ab742c53b1-p_e.jpg"
"31588 Rustic Oak Dr, Westlake Village, CA 91361","91361","Westlake Village","CA","2305000","4","4","3876","594.69","0.5146999999999999","acres","7/15/2024","1721026800000","https://zillow.com/homedetails/31588-Rustic-Oak-Dr-Westlake-Village-CA-91361/19890760_zpid/","34.14115","-118.81048","SINGLE_FAMILY","2313400","10900","https://photos.zillowstatic.com/fp/0296a03dd9e1097252a326fc7aa3e1c5-p_e.jpg"
"32027 Foxmoor Ct, Westlake Village, CA 91361","91361","Westlake Village","CA","1615000","5","3","2821","572.49","9012","sqft","7/15/2024","1721026800000","https://zillow.com/homedetails/32027-Foxmoor-Ct-Westlake-Village-CA-91361/19892820_zpid/","34.14616","-118.81953","SINGLE_FAMILY","1640800","7500","https://photos.zillowstatic.com/fp/bb944259fd8a2e2cfde4ab17cdd274b6-p_e.jpg"
"32075 Canterhill Pl, Westlake Village, CA 91361","91361","Westlake Village","CA","2150000","4","4","4091","525.54","0.4717401285583104","acres","7/12/2024","1720767600000","https://zillow.com/homedetails/32075-Canterhill-Pl-Westlake-Village-CA-91361/19890974_zpid/","34.13592","-118.81849","SINGLE_FAMILY","","11000","https://photos.zillowstatic.com/fp/8c6b186cc1e4711714ab73cf8f3296d8-p_e.jpg"
"31849 Village Brook Rd, Westlake Village, CA 91361","91361","Westlake Village","CA","1450000","4","3","2412","601.16","6327","sqft","7/12/2024","1720767600000","https://zillow.com/homedetails/31849-Village-Brook-Rd-Westlake-Village-CA-91361/19893237_zpid/","34.14169","-118.817635","SINGLE_FAMILY","1395000","7532","https://photos.zillowstatic.com/fp/285134566ef2d73da05fb3020458a929-p_e.jpg"
"32091 Canterhill Pl, Westlake Village, CA 91361","91361","Westlake Village","CA","3440000","5","5","3818","901","0.38930211202938475","acres","7/11/2024","1720681200000","https://zillow.com/homedetails/32091-Canterhill-Pl-Westlake-Village-CA-91361/19890985_zpid/","34.135983","-118.81981","SINGLE_FAMILY","3450600","13749","https://photos.zillowstatic.com/fp/10f2aa0edc00b697656315a88d30e251-p_e.jpg"
"32143 Beachlake Ln, Westlake Village, CA 91361","91361","Westlake Village","CA","1015000","3","2","1410","719.86","3200","sqft","7/11/2024","1720681200000","https://zillow.com/homedetails/32143-Beachlake-Ln-Westlake-Village-CA-91361/19891660_zpid/","34.141617","-118.82189","TOWNHOUSE","1018100","5447","https://photos.zillowstatic.com/fp/4224fdf4a8ffa9b2b392cc74753a6920-p_e.jpg"
"1323 Country Ranch Rd, Westlake Village, CA 91361","91361","Westlake Village","CA","3995000","7","7","4707","848.74","2.2928","acres","7/11/2024","1720681200000","https://zillow.com/homedetails/1323-Country-Ranch-Rd-Westlake-Village-CA-91361/20558075_zpid/","34.1205","-118.85603","SINGLE_FAMILY","4007300","14708","https://photos.zillowstatic.com/fp/a9fe46b8c0700163ccc82088c894d4da-p_e.jpg"
"113 Hampstead Ct, Thousand Oaks, CA 91361","91361","Thousand Oaks","CA","4250000","4","5","4817","882.29","0.5629935720844812","acres","7/11/2024","1720681200000","https://zillow.com/homedetails/113-Hampstead-Ct-Thousand-Oaks-CA-91361/69046754_zpid/","34.13012","-118.87552","SINGLE_FAMILY","4249300","16104","https://photos.zillowstatic.com/fp/01f176e8445ab292e9a4758dab0bf284-p_e.jpg"
"1140 Canterford Cir, Westlake Village, CA 91361","91361","Westlake Village","CA","810000","2","2","1149","704.96","6098.4","sqft","7/10/2024","1720594800000","https://zillow.com/homedetails/1140-Canterford-Cir-Westlake-Village-CA-91361/16490110_zpid/","34.150856","-118.82685","TOWNHOUSE","809900","3830","https://photos.zillowstatic.com/fp/758937e4e99e849b2064031208e93b2a-p_e.jpg"
"1658 Elstow Ct, Westlake Village, CA 91361","91361","Westlake Village","CA","1898000","4","3","2490","762.25","0.4450183654729109","acres","7/10/2024","1720594800000","https://zillow.com/homedetails/1658-Elstow-Ct-Westlake-Village-CA-91361/16492618_zpid/","34.142914","-118.84874","SINGLE_FAMILY","1897700","6637","https://photos.zillowstatic.com/fp/559a4897b7eb2330803a80291636e3b6-p_e.jpg"
"1178 Westlake Blvd UNIT E, Westlake Village, CA 91361","91361","Westlake Village","CA","800000","2","3","1750","457.14","","","7/10/2024","1720594800000","https://zillow.com/homedetails/1178-Westlake-Blvd-UNIT-E-Westlake-Village-CA-91361/16493585_zpid/","34.14437","-118.86903","CONDO","799900","5145","https://photos.zillowstatic.com/fp/5aa3c0cb49fe1dfaa926bca1c0ce99ae-p_e.jpg"
"1480 Cheviot Hills Ct, Westlake Village, CA 91361","91361","Westlake Village","CA","5400000","5","6","5421","996.13","0.9573999999999999","acres","7/9/2024","1720508400000","https://zillow.com/homedetails/1480-Cheviot-Hills-Ct-Westlake-Village-CA-91361/61305682_zpid/","34.147095","-118.85203","SINGLE_FAMILY","5399000","19563","https://photos.zillowstatic.com/fp/6df0d31e568bd878bf86eff928608c5d-p_e.jpg"
"1551 Bridgegate St, Westlake Village, CA 91361","91361","Westlake Village","CA","1385000","3","2","1757","788.28","8400","sqft","7/8/2024","1720422000000","https://zillow.com/homedetails/1551-Bridgegate-St-Westlake-Village-CA-91361/16491663_zpid/","34.147423","-118.85088","SINGLE_FAMILY","1388900","5373","https://photos.zillowstatic.com/fp/cbb8734a52d20d6471a574444622b4fd-p_e.jpg"
"32187 Sailview Ln, Westlake Village, CA 91361","91361","Westlake Village","CA","1575000","3","3","1947","808.94","3120","sqft","7/8/2024","1720422000000","https://zillow.com/homedetails/32187-Sailview-Ln-Westlake-Village-CA-91361/19891576_zpid/","34.142967","-118.823555","TOWNHOUSE","1580300","6495","https://photos.zillowstatic.com/fp/65ee8328e272e51406e7c8536e7662b2-p_e.jpg"
"1613 Oakcottage Ct, Westlake Village, CA 91361","91361","Westlake Village","CA","1975000","3","3","2782","709.92","9910","sqft","7/8/2024","1720422000000","https://zillow.com/homedetails/1613-Oakcottage-Ct-Westlake-Village-CA-91361/2055285975_zpid/","34.146233","-118.87134","SINGLE_FAMILY","1982400","6262","https://photos.zillowstatic.com/fp/0a0b13e686b630892f25134cfbac25ad-p_e.jpg"
"1690 S Camberwell Pl, Westlake Village, CA 91361","91361","Westlake Village","CA","1104500","4","2","1879","587.81","7405","sqft","7/5/2024","1720162800000","https://zillow.com/homedetails/1690-S-Camberwell-Pl-Westlake-Village-CA-91361/16491088_zpid/","34.1436","-118.852905","SINGLE_FAMILY","1390900","6070","https://maps.googleapis.com/maps/api/staticmap?mobile=false&sensor=true&maptype=satellite&size=575x242&zoom=17&center=34.14360046386719,-118.8529052734375&key=AIzaSyBJsNQO5ZeG-XAbqqWLKwG08fWITSxg33w&signature=iQarkRRWEnckjd13oyvFvOC8-H0="
"4229 Hartfield Ct, Westlake Village, CA 91361","91361","Westlake Village","CA","1680000","4","2","1852","907.13","7286","sqft","7/5/2024","1720162800000","https://zillow.com/homedetails/4229-Hartfield-Ct-Westlake-Village-CA-91361/19893052_zpid/","34.14296","-118.8122","SINGLE_FAMILY","1686400","6858","https://photos.zillowstatic.com/fp/74412a949ea06c89f3b3c432d1ac8d01-p_e.jpg"
"1314 Caitlyn Cir, Westlake Village, CA 91361","91361","Westlake Village","CA","3300000","5","6","4602","717.08","0.48813131313131314","acres","7/2/2024","1719903600000","https://zillow.com/homedetails/1314-Caitlyn-Cir-Westlake-Village-CA-91361/54944686_zpid/","34.12454","-118.85324","SINGLE_FAMILY","3306800","18949","https://photos.zillowstatic.com/fp/d47b460fc867c08b01ab28e8cb0bf1fc-p_e.jpg"
"4409 Yorkfield Ct, Westlake Village, CA 91361","91361","Westlake Village","CA","1950000","4","2","1952","998.98","6253","sqft","7/1/2024","1719817200000","https://zillow.com/homedetails/4409-Yorkfield-Ct-Westlake-Village-CA-91361/19893167_zpid/","34.14567","-118.81261","SINGLE_FAMILY","1954500","6034","https://photos.zillowstatic.com/fp/00585d096b49f47fd9e3c4d4013566ed-p_e.jpg"
"2956 Shadow Brook Ln, Westlake Village, CA 91361","91361","Westlake Village","CA","1312500","3","2","1967","667.26","4791","sqft","6/28/2024","1719558000000","https://zillow.com/homedetails/2956-Shadow-Brook-Ln-Westlake-Village-CA-91361/16490519_zpid/","34.149654","-118.82231","TOWNHOUSE","1289000","5532","https://photos.zillowstatic.com/fp/dbf85d457155c11a98625918df85b4e5-p_e.jpg"
"2338 S Stormcroft Ct, Westlake Village, CA 91361","91361","Westlake Village","CA","1585000","3","4","2782","569.73","7120","sqft","6/28/2024","1719558000000","https://zillow.com/homedetails/2338-S-Stormcroft-Ct-Westlake-Village-CA-91361/16491505_zpid/","34.152504","-118.834496","SINGLE_FAMILY","1588300","6288","https://photos.zillowstatic.com/fp/0c2c12b418510433baca4f163e741c2a-p_e.jpg"
"1576 Aspenwall Rd, Westlake Village, CA 91361","91361","Westlake Village","CA","1925000","4","3","2888","666.55","8866","sqft","6/28/2024","1719558000000","https://zillow.com/homedetails/1576-Aspenwall-Rd-Westlake-Village-CA-91361/16492649_zpid/","34.144566","-118.84598","SINGLE_FAMILY","1929100","7366","https://photos.zillowstatic.com/fp/f7c2fcfdde6d9097b2e5f396bcf72324-p_e.jpg"
"1178 Westlake Blvd UNIT B, Westlake Village, CA 91361","91361","Westlake Village","CA","805000","2","3","1936","415.81","3920","sqft","6/27/2024","1719471600000","https://zillow.com/homedetails/1178-Westlake-Blvd-UNIT-B-Westlake-Village-CA-91361/16493582_zpid/","34.149452","-118.83582","TOWNHOUSE","806800","4992","https://photos.zillowstatic.com/fp/166c63e93e3a773e6c507feffdc7c669-p_e.jpg"
"2162 Crespi Ln, Westlake Village, CA 91361","91361","Westlake Village","CA","935000","2","2","1508","620.03","6534","sqft","6/26/2024","1719385200000","https://zillow.com/homedetails/2162-Crespi-Ln-Westlake-Village-CA-91361/16492852_zpid/","34.14705","-118.839096","CONDO","937100","4187","https://photos.zillowstatic.com/fp/5b889c2ce65c5dd7508f17653c6ca483-p_e.jpg"
"2424 Windward Cir, Westlake Village, CA 91361","91361","Westlake Village","CA","3500000","4","3","2841","1231.96","7138","sqft","6/26/2024","1719385200000","https://zillow.com/homedetails/2424-Windward-Cir-Westlake-Village-CA-91361/16493192_zpid/","34.14429","-118.83294","TOWNHOUSE","3507800","7766","https://photos.zillowstatic.com/fp/400dd0df6d608ff1514292e7ca07938f-p_e.jpg"
"342 Fox Hills Dr, Thousand Oaks, CA 91361","91361","Thousand Oaks","CA","1500000","4","3","2721","551.27","8675","sqft","6/25/2024","1719298800000","https://zillow.com/homedetails/342-Fox-Hills-Dr-Thousand-Oaks-CA-91361/16484777_zpid/","34.17281","-118.875656","SINGLE_FAMILY","1503400","6974","https://photos.zillowstatic.com/fp/f86839c596f777248c1cd7377499d89c-p_e.jpg"
"1798 Brooksfall Ct, Westlake Village, CA 91361","91361","Westlake Village","CA","1450000","3","2","1991","728.28","10534","sqft","6/25/2024","1719298800000","https://zillow.com/homedetails/1798-Brooksfall-Ct-Westlake-Village-CA-91361/16492466_zpid/","34.141323","-118.83594","SINGLE_FAMILY","1453300","5244","https://photos.zillowstatic.com/fp/27579920236e89d6a65ab16d14275585-p_e.jpg"
"3701 Capstan Cir, Westlake Village, CA 91361","91361","Westlake Village","CA","4062500","4","5","4125","984.85","7170","sqft","6/25/2024","1719298800000","https://zillow.com/homedetails/3701-Capstan-Cir-Westlake-Village-CA-91361/19892038_zpid/","34.1385","-118.825905","SINGLE_FAMILY","4072500","15888","https://photos.zillowstatic.com/fp/47c3e2000d771335954abe2cd0b300e4-p_e.jpg"
"102 Queens Garden Dr, Thousand Oaks, CA 91361","91361","Thousand Oaks","CA","4850000","5","6","6384","759.71","0.5733930211202939","acres","6/25/2024","1719298800000","https://zillow.com/homedetails/102-Queens-Garden-Dr-Thousand-Oaks-CA-91361/123119122_zpid/","34.130356","-118.876656","SINGLE_FAMILY","4864200","18534","https://photos.zillowstatic.com/fp/aebdcf041c864161145860f96b0c8ba0-p_e.jpg"
"1258 Landsburn Cir, Westlake Village, CA 91361","91361","Westlake Village","CA","400000","2","1","920","434.78","3049","sqft","6/24/2024","1719212400000","https://zillow.com/homedetails/1258-Landsburn-Cir-Westlake-Village-CA-91361/16490431_zpid/","34.14832","-118.82505","SINGLE_FAMILY","400900","3258","https://photos.zillowstatic.com/fp/dea8bfeaf87fbdf2cc69326f5ce8d4fa-p_e.jpg"
"1618 Sycamore Canyon Dr, Westlake Village, CA 91361","91361","Westlake Village","CA","2614150","4","4","3420","764.37","0.7047061524334252","acres","6/21/2024","1718953200000","https://zillow.com/homedetails/1618-Sycamore-Canyon-Dr-Westlake-Village-CA-91361/54944689_zpid/","34.124664","-118.85384","SINGLE_FAMILY","2621500","10950","https://photos.zillowstatic.com/fp/6adc5494980884802bea868a491ca3d8-p_e.jpg"
"31753 Blue Meadow Ln, Westlake Village, CA 91361","91361","Westlake Village","CA","2425000","5","5","3977","609.76","0.34575298438934804","acres","6/20/2024","1718866800000","https://zillow.com/homedetails/31753-Blue-Meadow-Ln-Westlake-Village-CA-91361/19890710_zpid/","34.139793","-118.81435","SINGLE_FAMILY","2431700","13749","https://photos.zillowstatic.com/fp/8b0ecaaeabdb3d572d4f82eec12f6d8a-p_e.jpg"
"986 W Carlisle Rd, Westlake Village, CA 91361","91361","Westlake Village","CA","1842500","3","2","","","10","acres","6/20/2024","1718866800000","https://zillow.com/homedetails/986-W-Carlisle-Rd-Westlake-Village-CA-91361/402094191_zpid/","34.11534","-118.90711","SINGLE_FAMILY","1847200","","https://photos.zillowstatic.com/fp/37a6202989545d5880637ba14abbcabb-p_e.jpg"
"1276 Landsburn Cir, Westlake Village, CA 91361","91361","Westlake Village","CA","590000","2","1","924","638.53","3049","sqft","6/18/2024","1718694000000","https://zillow.com/homedetails/1276-Landsburn-Cir-Westlake-Village-CA-91361/16490440_zpid/","34.148724","-118.82506","CONDO","591600","3028","https://maps.googleapis.com/maps/api/staticmap?mobile=false&sensor=true&maptype=satellite&size=575x242&zoom=17&center=34.14872360229492,-118.82505798339844&key=AIzaSyBJsNQO5ZeG-XAbqqWLKwG08fWITSxg33w&signature=fHPs5ZMQIfleFSPqQAJUKV2BbLA="
"250 Garden Dr, Thousand Oaks, CA 91361","91361","Thousand Oaks","CA","5000000","5","6","6601","757.46","0.5696","acres","6/18/2024","1718694000000","https://zillow.com/homedetails/250-Garden-Dr-Thousand-Oaks-CA-91361/16490817_zpid/","34.126377","-118.8828","SINGLE_FAMILY","5013400","19157","https://photos.zillowstatic.com/fp/9243f6160ff31b24ca6c0d4c40c3f762-p_e.jpg"
"3563 Twin Lake Rdg, Westlake Village, CA 91361","91361","Westlake Village","CA","2649000","5","4","3755","705.46","0.43732782369146006","acres","6/18/2024","1718694000000","https://zillow.com/homedetails/3563-Twin-Lake-Rdg-Westlake-Village-CA-91361/19892181_zpid/","34.136684","-118.83046","SINGLE_FAMILY","2656600","10950","https://photos.zillowstatic.com/fp/a3b98175e19f06c0cf46021e219dfa0f-p_e.jpg"
"2660 Grandoaks Dr, Westlake Village, CA 91361","91361","Westlake Village","CA","2050000","4","4","3528","581.07","0.30629017447199264","acres","6/18/2024","1718694000000","https://zillow.com/homedetails/2660-Grandoaks-Dr-Westlake-Village-CA-91361/19892392_zpid/","34.13444","-118.84133","SINGLE_FAMILY","2055900","9899","https://photos.zillowstatic.com/fp/51078ccd28ea9b40a3efa7922cbdbc14-p_e.jpg"
"1482 Caitlyn Cir, Westlake Village, CA 91361","91361","Westlake Village","CA","2450000","4","5","4352","562.96","0.2804178145087236","acres","6/18/2024","1718694000000","https://zillow.com/homedetails/1482-Caitlyn-Cir-Westlake-Village-CA-91361/61359372_zpid/","34.125233","-118.85535","SINGLE_FAMILY","2457000","18000","https://photos.zillowstatic.com/fp/f9abfb40f9a5eb26d6d9bc1052c7ffa5-p_e.jpg"
"1126 Landsburn Cir, Westlake Village, CA 91361","91361","Westlake Village","CA","520000","2","1","924","562.77","3049","sqft","6/14/2024","1718348400000","https://zillow.com/homedetails/1126-Landsburn-Cir-Westlake-Village-CA-91361/16490301_zpid/","34.14903","-118.8231","TOWNHOUSE","522000","3187","https://photos.zillowstatic.com/fp/df0802b350a0ed855e50a43cf8ac0b10-p_e.jpg"
"1230 Kirkford Way, Westlake Village, CA 91361","91361","Westlake Village","CA","530000","2","1","924","573.59","3049","sqft","6/14/2024","1718348400000","https://zillow.com/homedetails/1230-Kirkford-Way-Westlake-Village-CA-91361/16490416_zpid/","34.14868","-118.82549","TOWNHOUSE","546600","3187","https://photos.zillowstatic.com/fp/013fa8ca3e4ee8c9307672dbfb1085bf-p_e.jpg"
"31535 Germaine Ln, Westlake Village, CA 91361","91361","Westlake Village","CA","2675000","4","3","2727","980.93","0.42536730945821855","acres","6/14/2024","1718348400000","https://zillow.com/homedetails/31535-Germaine-Ln-Westlake-Village-CA-91361/19890809_zpid/","34.13923","-118.81014","SINGLE_FAMILY","2683300","7899","https://photos.zillowstatic.com/fp/0da75fa9343777c690aa5483754247cf-p_e.jpg"
"43 Old Castle Rd, Westlake Village, CA 91361","91361","Westlake Village","CA","900000","3","2","1440","625","6438","sqft","6/14/2024","1718348400000","https://zillow.com/homedetails/43-Old-Castle-Rd-Westlake-Village-CA-91361/19891159_zpid/","34.13093","-118.81861","MANUFACTURED","902800","3533","https://photos.zillowstatic.com/fp/a43a18559b03e1e95f4e7d52d9b5d16a-p_e.jpg"
"2359 Silver Spring Dr, Westlake Village, CA 91361","91361","Westlake Village","CA","1775000","4","3","2824","628.54","9887","sqft","6/13/2024","1718262000000","https://zillow.com/homedetails/2359-Silver-Spring-Dr-Westlake-Village-CA-91361/16492297_zpid/","34.15481","-118.83424","SINGLE_FAMILY","1846200","6685","https://photos.zillowstatic.com/fp/f9b7f08ddfafd80acb2d802fa6705948-p_e.jpg"
"31574 Agoura Rd UNIT 2, Westlake Village, CA 91361","91361","Westlake Village","CA","554000","2","2","1158","478.41","10.6852","acres","6/10/2024","1718002800000","https://zillow.com/homedetails/31574-Agoura-Rd-UNIT-2-Westlake-Village-CA-91361/19893443_zpid/","34.146023","-118.80808","CONDO","555300","3315","https://photos.zillowstatic.com/fp/732dd4f904d3391f39b4b4cca98453a6-p_e.jpg"
"31510 Germaine Ln, Westlake Village, CA 91361","91361","Westlake Village","CA","2250","6","6","5000","0.45","0.6415518824609734","acres","6/9/2024","1717916400000","https://zillow.com/homedetails/31510-Germaine-Ln-Westlake-Village-CA-91361/19890800_zpid/","34.1389","-118.80897","SINGLE_FAMILY","2693600","13299","https://maps.googleapis.com/maps/api/staticmap?mobile=false&sensor=true&maptype=satellite&size=575x242&zoom=17&center=34.13890075683594,-118.80896759033203&key=AIzaSyBJsNQO5ZeG-XAbqqWLKwG08fWITSxg33w&signature=GVAx88ph9MMLpEDYChuV919vs9o="
"2423 S Windward Cir, Westlake Village, CA 91361","91361","Westlake Village","CA","1950000","3","2.5","1960","994.9","3484","sqft","6/7/2024","1717743600000","https://zillow.com/homedetails/2423-S-Windward-Cir-Westlake-Village-CA-91361/16493189_zpid/","34.14455","-118.83283","TOWNHOUSE","1957800","4917","https://photos.zillowstatic.com/fp/4c82e7f63cce800da68aa16cc4a3f720-p_e.jpg"
"1224 Landsburn Cir, Westlake Village, CA 91361","91361","Westlake Village","CA","580000","2","1","924","627.71","3049","sqft","6/5/2024","1717570800000","https://zillow.com/homedetails/1224-Landsburn-Cir-Westlake-Village-CA-91361/16490358_zpid/","34.147717","-118.8245","CONDO","582400","3028","https://photos.zillowstatic.com/fp/ebbd35f488117243f10f737079447818-p_e.jpg"
"1420 Oldbury Pl, Westlake Village, CA 91361","91361","Westlake Village","CA","1510600","5","3","2510","601.83","8105","sqft","6/5/2024","1717570800000","https://zillow.com/homedetails/1420-Oldbury-Pl-Westlake-Village-CA-91361/16491270_zpid/","34.146923","-118.84475","SINGLE_FAMILY","1517200","6577","https://photos.zillowstatic.com/fp/a8dc8a18032cb106c2d21c69fd450125-p_e.jpg"
"32132 Canyon Crest Ct, Westlake Village, CA 91361","91361","Westlake Village","CA","1250000","4","3","2618","477.46","2387","sqft","6/5/2024","1717570800000","https://zillow.com/homedetails/32132-Canyon-Crest-Ct-Westlake-Village-CA-91361/19891078_zpid/","34.13448","-118.82034","TOWNHOUSE","","6361","https://photos.zillowstatic.com/fp/65ce96031edf5f379fc50e82f73af76b-p_e.jpg"
"196 Quails Trail Dr, Thousand Oaks, CA 91361","91361","Thousand Oaks","CA","1160000","4","3","2865","404.89","9082","sqft","6/4/2024","1717484400000","https://zillow.com/homedetails/196-Quails-Trail-Dr-Thousand-Oaks-CA-91361/16484758_zpid/","34.17371","-118.873566","SINGLE_FAMILY","","5316","https://photos.zillowstatic.com/fp/5bd11d6a1942fa77948ddfa34a21d4a9-p_e.jpg"
"1615 Valecroft Ave, Thousand Oaks, CA 91361","91361","Thousand Oaks","CA","2164000","3","3","2304","939.24","9300","sqft","6/4/2024","1717484400000","https://zillow.com/homedetails/1615-Valecroft-Ave-Thousand-Oaks-CA-91361/16491740_zpid/","34.152164","-118.85126","SINGLE_FAMILY","2173000","6399","https://photos.zillowstatic.com/fp/b1f6d85930a7af66529b220711c8460e-p_e.jpg"
"1233 Barclay Ct, Westlake Village, CA 91361","91361","Westlake Village","CA","1805000","5","4","2981","605.5","8963","sqft","6/3/2024","1717398000000","https://zillow.com/homedetails/1233-Barclay-Ct-Westlake-Village-CA-91361/16491326_zpid/","34.148388","-118.843216","SINGLE_FAMILY","1812600","7876","https://photos.zillowstatic.com/fp/4582966116d5764a24f82e4aec3a7cd4-p_e.jpg"
"1646 Folkestone Ter, Westlake Village, CA 91361","91361","Westlake Village","CA","2065000","5","3","2808","735.4","0.3608356290174472","acres","5/31/2024","1717138800000","https://zillow.com/homedetails/1646-Folkestone-Ter-Westlake-Village-CA-91361/16492767_zpid/","34.142517","-118.83904","SINGLE_FAMILY","2074200","7950","https://photos.zillowstatic.com/fp/fb21d3a96d4d3f8a155dae080a794f4c-p_e.jpg"
"2354 Leeward Cir, Westlake Village, CA 91361","91361","Westlake Village","CA","1500000","3","2","1641","914.08","5500","sqft","5/31/2024","1717138800000","https://zillow.com/homedetails/2354-Leeward-Cir-Westlake-Village-CA-91361/16493579_zpid/","34.14146","-118.83343","SINGLE_FAMILY","1506700","5437","https://photos.zillowstatic.com/fp/807122e22750122503341626f48f5aeb-p_e.jpg"
"3929 Clearford Ct, Westlake Village, CA 91361","91361","Westlake Village","CA","1820000","4","3","2412","754.56","7382","sqft","5/31/2024","1717138800000","https://zillow.com/homedetails/3929-Clearford-Ct-Westlake-Village-CA-91361/19892958_zpid/","34.141277","-118.81707","SINGLE_FAMILY","1824700","7576","https://photos.zillowstatic.com/fp/d76eaba634805ee2d81c55540305585f-p_e.jpg"
"3535 Ridgeford Dr, Westlake Village, CA 91361","91361","Westlake Village","CA","2100000","4","3","3726","563.61","0.40365013774104685","acres","5/30/2024","1717052400000","https://zillow.com/homedetails/3535-Ridgeford-Dr-Westlake-Village-CA-91361/19891029_zpid/","34.136","-118.81246","SINGLE_FAMILY","2105500","9499","https://photos.zillowstatic.com/fp/d5f1753e7d68078f0c69ea8cdc3a2224-p_e.jpg"
"1162 Stonewall Cir, Westlake Village, CA 91361","91361","Westlake Village","CA","3850","","","","","","","5/30/2024","1717052400000","https://zillow.com/homedetails/1162-Stonewall-Cir-Westlake-Village-CA-91361/2070020238_zpid/","34.150043","-118.82713","SINGLE_FAMILY","822400","3687","https://maps.googleapis.com/maps/api/staticmap?mobile=false&sensor=true&maptype=satellite&size=575x242&zoom=17&center=34.15004348754883,-118.82713317871094&key=AIzaSyBJsNQO5ZeG-XAbqqWLKwG08fWITSxg33w&signature=-ZetobTSXjbQLPGpFyeSHw-tQLc="
"2960 Shadow Brook Ln, Westlake Village, CA 91361","91361","Westlake Village","CA","1000100","3","2","1835","545.01","4356","sqft","5/28/2024","1716879600000","https://zillow.com/homedetails/2960-Shadow-Brook-Ln-Westlake-Village-CA-91361/16490520_zpid/","34.149525","-118.82191","TOWNHOUSE","1005200","5336","https://photos.zillowstatic.com/fp/0f21d5653291e4af224f1ac36f09d627-p_e.jpg"
"31717 Kentfield Ct, Westlake Village, CA 91361","91361","Westlake Village","CA","1869000","4","3","2600","718.85","7845","sqft","5/28/2024","1716879600000","https://zillow.com/homedetails/31717-Kentfield-Ct-Westlake-Village-CA-91361/19892989_zpid/","34.141518","-118.814476","SINGLE_FAMILY","1874500","7918","https://photos.zillowstatic.com/fp/704db30cf61a2d2fcd9190b84177b33c-p_e.jpg"
"31756 Oak Ranch Ct, Westlake Village, CA 91361","91361","Westlake Village","CA","2525000","5","4","3291","767.24","0.3671","acres","5/24/2024","1716534000000","https://zillow.com/homedetails/31756-Oak-Ranch-Ct-Westlake-Village-CA-91361/19890720_zpid/","34.13962","-118.81474","SINGLE_FAMILY","2532500","9899","https://photos.zillowstatic.com/fp/051e6d6a61cd8625d19c2d4c11841315-p_e.jpg"
"3710 Summershore Ln, Westlake Village, CA 91361","91361","Westlake Village","CA","749000","2","2","1096","683.39","11.2569","acres","5/24/2024","1716534000000","https://zillow.com/homedetails/3710-Summershore-Ln-Westlake-Village-CA-91361/19890895_zpid/","34.137806","-118.820816","CONDO","751200","3652","https://photos.zillowstatic.com/fp/35373235d7400dea09b4bda385a4e8a5-p_e.jpg"
"1990 Highgate Rd, Westlake Village, CA 91361","91361","Westlake Village","CA","5399999","5","6","6484","832.82","1.0692","acres","5/24/2024","1716534000000","https://zillow.com/homedetails/1990-Highgate-Rd-Westlake-Village-CA-91361/2054929022_zpid/","34.137123","-118.84136","SINGLE_FAMILY","5427400","20881","https://photos.zillowstatic.com/fp/0aea1346118ed4bc416b1ebc70db4bac-p_e.jpg"
"1920 Stonesgate St, Westlake Village, CA 91361","91361","Westlake Village","CA","1355000","4","3","2260","599.56","0.48496326905417814","acres","5/23/2024","1716447600000","https://zillow.com/homedetails/1920-Stonesgate-St-Westlake-Village-CA-91361/16491955_zpid/","34.151253","-118.84326","SINGLE_FAMILY","1300300","6139","https://photos.zillowstatic.com/fp/e4c84b2dd4f1e0ea68e9260aaa631754-p_e.jpg"
"1228 S Westlake Blvd #D, Westlake, CA 91361","91361","Westlake","CA","840000","3","3","1818","462.05","3920","sqft","5/23/2024","1716447600000","https://zillow.com/homedetails/1228-S-Westlake-Blvd-D-Westlake-CA-91361/16493662_zpid/","34.14742","-118.835526","CONDO","844300","4920","https://photos.zillowstatic.com/fp/dbc4895f196927e5d35f2f2f8fe35902-p_e.jpg"
"32844 Barrett Dr, Westlake Village, CA 91361","91361","Westlake Village","CA","2165000","5","4","3544","610.89","0.4466712580348944","acres","5/23/2024","1716447600000","https://zillow.com/homedetails/32844-Barrett-Dr-Westlake-Village-CA-91361/19892583_zpid/","34.130894","-118.84531","SINGLE_FAMILY","2171500","10950","https://photos.zillowstatic.com/fp/3a6ef7a0489ebacd01e2c7413fe63e4f-p_e.jpg"
"4421 Yorkfield Ct, Westlake Village, CA 91361","91361","Westlake Village","CA","1885750","3","2","1952","966.06","7085","sqft","5/23/2024","1716447600000","https://zillow.com/homedetails/4421-Yorkfield-Ct-Westlake-Village-CA-91361/19893165_zpid/","34.146008","-118.81258","SINGLE_FAMILY","1909600","5375","https://photos.zillowstatic.com/fp/4e24ff2d4bb0dee31717939be2885fa5-p_e.jpg"
"2834 Lakeridge Ln, Westlake Village, CA 91361","91361","Westlake Village","CA","975000","2","2","1144","852.27","2530","sqft","5/22/2024","1716361200000","https://zillow.com/homedetails/2834-Lakeridge-Ln-Westlake-Village-CA-91361/16493433_zpid/","34.1466","-118.824715","SINGLE_FAMILY","980100","3976","https://photos.zillowstatic.com/fp/4b2e286d984108231e559accc3d5923f-p_e.jpg"
"31904 Richgrove Ct, Westlake Village, CA 91361","91361","Westlake Village","CA","1575000","4","2","1737","906.74","9072","sqft","5/22/2024","1716361200000","https://zillow.com/homedetails/31904-Richgrove-Ct-Westlake-Village-CA-91361/19892926_zpid/","34.140827","-118.81876","SINGLE_FAMILY","1579800","6517","https://photos.zillowstatic.com/fp/cb3f8a34a7462ca33df2e2c74979cb8a-p_e.jpg"
"32001 Watergate Ct, Westlake Village, CA 91361","91361","Westlake Village","CA","1200000","3","2","1801","666.3","8818","sqft","5/17/2024","1715929200000","https://zillow.com/homedetails/32001-Watergate-Ct-Westlake-Village-CA-91361/19892826_zpid/","34.14529","-118.81889","SINGLE_FAMILY","1537700","6080","https://maps.googleapis.com/maps/api/staticmap?mobile=false&sensor=true&maptype=satellite&size=575x242&zoom=17&center=34.14529037475586,-118.81889343261719&key=AIzaSyBJsNQO5ZeG-XAbqqWLKwG08fWITSxg33w&signature=Oo8xO9RE-cm1_OP-L3y2kMpzD60="
"2686 Lakewood Pl, Westlake Village, CA 91361","91361","Westlake Village","CA","1300000","2","2","1532","848.56","3494","sqft","5/16/2024","1715842800000","https://zillow.com/homedetails/2686-Lakewood-Pl-Westlake-Village-CA-91361/16493315_zpid/","34.148594","-118.82791","SINGLE_FAMILY","1307800","4590","https://photos.zillowstatic.com/fp/26245d4aa967178afb414a9dc65513f8-p_e.jpg"
"3826 Mainsail Cir, Westlake Village, CA 91361","91361","Westlake Village","CA","1500000","2","2","1568","956.63","5027","sqft","5/15/2024","1715756400000","https://zillow.com/homedetails/3826-Mainsail-Cir-Westlake-Village-CA-91361/19891955_zpid/","34.141693","-118.83096","SINGLE_FAMILY","1505200","6505","https://photos.zillowstatic.com/fp/f9049321ecea05a340b266c1296e6e30-p_e.jpg"
"32142 Beachlake Ln, Westlake Village, CA 91361","91361","Westlake Village","CA","1300000","2","3","2031","640.08","3420","sqft","5/14/2024","1715670000000","https://zillow.com/homedetails/32142-Beachlake-Ln-Westlake-Village-CA-91361/19891685_zpid/","34.141434","-118.82222","TOWNHOUSE","1304600","5402","https://photos.zillowstatic.com/fp/401639e0e42b4a3294d9d838464cc2ae-p_e.jpg"
"2810 Shoreview Cir, Westlake Village, CA 91361","91361","Westlake Village","CA","1130000","2","2","1312","861.28","2508","sqft","5/13/2024","1715583600000","https://zillow.com/homedetails/2810-Shoreview-Cir-Westlake-Village-CA-91361/16493409_zpid/","34.146957","-118.82573","SINGLE_FAMILY","1136800","4068","https://photos.zillowstatic.com/fp/598e4cd2c8f491d28ffda4c0a1573dd1-p_e.jpg"
"141 Lake Sherwood Dr, Thousand Oaks, CA 91361","91361","Thousand Oaks","CA","909000","2","1","777","1169.88","0.3650137741046832","acres","5/10/2024","1715324400000","https://zillow.com/homedetails/141-Lake-Sherwood-Dr-Thousand-Oaks-CA-91361/16490611_zpid/","34.14196","-118.87395","SINGLE_FAMILY","914800","3297","https://photos.zillowstatic.com/fp/ad68cd7c092e8eb85b3775d10487c64d-p_e.jpg"
"1056 Triunfo Canyon Rd, Westlake Village, CA 91361","91361","Westlake Village","CA","1555000","4","3","2195","708.43","7037","sqft","5/9/2024","1715238000000","https://zillow.com/homedetails/1056-Triunfo-Canyon-Rd-Westlake-Village-CA-91361/16492042_zpid/","34.151646","-118.84011","SINGLE_FAMILY","1565000","7560","https://photos.zillowstatic.com/fp/f076800991ccd06834ca4aef7924d614-p_e.jpg"
"2589 Northshore Ln, Westlake Village, CA 91361","91361","Westlake Village","CA","1450000","3","2","1636","886.31","3886","sqft","5/8/2024","1715151600000","https://zillow.com/homedetails/2589-Northshore-Ln-Westlake-Village-CA-91361/16493290_zpid/","34.14904","-118.829994","SINGLE_FAMILY","","4802","https://photos.zillowstatic.com/fp/c0dcd9b7a59d37459b095605a91c06d2-p_e.jpg"
"32141 Beachfront Ln, Westlake Village, CA 91361","91361","Westlake Village","CA","942500","2","2","1410","668.44","3152","sqft","5/8/2024","1715151600000","https://zillow.com/homedetails/32141-Beachfront-Ln-Westlake-Village-CA-91361/19891501_zpid/","34.145412","-118.8249","TOWNHOUSE","","4402","https://photos.zillowstatic.com/fp/cad3cb2e680aaf9eadfcfc742c644438-p_e.jpg"
"3668 Twin Lake Rdg, Westlake Village, CA 91361","91361","Westlake Village","CA","2700000","4","3","3292","820.17","0.3405","acres","5/7/2024","1715065200000","https://zillow.com/homedetails/3668-Twin-Lake-Rdg-Westlake-Village-CA-91361/19892076_zpid/","34.138615","-118.82823","SINGLE_FAMILY","2533100","9000","https://photos.zillowstatic.com/fp/2da49f763c0faf2f04ba0d043d6e8efb-p_e.jpg"
"2567 Oakshore Dr, Westlake Village, CA 91361","91361","Westlake Village","CA","3650000","4","5","3950","924.05","6776","sqft","5/6/2024","1714978800000","https://zillow.com/homedetails/2567-Oakshore-Dr-Westlake-Village-CA-91361/16493110_zpid/","34.145214","-118.83014","SINGLE_FAMILY","3674400","14210","https://photos.zillowstatic.com/fp/2abe62db20d10e1c7ec02c01ed080bf3-p_e.jpg"
"109 Merry Oak Ln, Westlake Village, CA 91361","91361","Westlake Village","CA","9703","2","2","1542","6.29","3894","sqft","5/6/2024","1714978800000","https://zillow.com/homedetails/109-Merry-Oak-Ln-Westlake-Village-CA-91361/19891282_zpid/","34.13222","-118.8143","MANUFACTURED","507900","3319","https://maps.googleapis.com/maps/api/staticmap?mobile=false&sensor=true&maptype=satellite&size=575x242&zoom=17&center=34.13222122192383,-118.81430053710938&key=AIzaSyBJsNQO5ZeG-XAbqqWLKwG08fWITSxg33w&signature=sQhREp_rHftrQQpLaCstry7t34M="
"1561 Sycamore Canyon Dr, Westlake Village, CA 91361","91361","Westlake Village","CA","2899999","3","4","4229","685.74","0.5383838383838384","acres","5/6/2024","1714978800000","https://zillow.com/homedetails/1561-Sycamore-Canyon-Dr-Westlake-Village-CA-91361/54944694_zpid/","34.126286","-118.85452","SINGLE_FAMILY","2911500","11000","https://photos.zillowstatic.com/fp/0cfb81d13b1ed1f4dc6299a9d9a1872c-p_e.jpg"
"2867 Instone Ct, Westlake Village, CA 91361","91361","Westlake Village","CA","645000","2","2","920","701.09","3049","sqft","5/3/2024","1714719600000","https://zillow.com/homedetails/2867-Instone-Ct-Westlake-Village-CA-91361/16490253_zpid/","34.14944","-118.824295","CONDO","649500","3342","https://photos.zillowstatic.com/fp/6ec6be562d7a87aad13510b34419366e-p_e.jpg"
"1281 Landsburn Cir, Westlake Village, CA 91361","91361","Westlake Village","CA","600000","2","1","924","649.35","3049","sqft","5/3/2024","1714719600000","https://zillow.com/homedetails/1281-Landsburn-Cir-Westlake-Village-CA-91361/16490287_zpid/","34.148907","-118.82455","CONDO","604200","3028","https://photos.zillowstatic.com/fp/268d6080ffb546ace52e3226d44b5064-p_e.jpg"
"32206 Shoreview Dr #16, Westlake Village, CA 91361","91361","Westlake Village","CA","1415000","3","2.5","2545","555.99","2.496992653810836","acres","5/3/2024","1714719600000","https://zillow.com/homedetails/32206-Shoreview-Dr-16-Westlake-Village-CA-91361/19892687_zpid/","34.134903","-118.82317","TOWNHOUSE","1420800","7050","https://photos.zillowstatic.com/fp/9ea58a0dd2f0c5a94e211a31457c5eb7-p_e.jpg"
"32206 Shoreview Dr, Westlake Village, CA 91361","91361","Westlake Village","CA","1415000","3","3","2545","555.99","2.4937","acres","5/3/2024","1714719600000","https://zillow.com/homedetails/32206-Shoreview-Dr-Westlake-Village-CA-91361/343906372_zpid/","34.13489","-118.823166","TOWNHOUSE","1420800","7050","https://photos.zillowstatic.com/fp/bcce298084b8449daa3c8403cea51710-p_e.jpg"
"2135 Highgate Rd, Westlake Village, CA 91361","91361","Westlake Village","CA","1680500","4","3","2823","595.29","0.41173094582185493","acres","5/2/2024","1714633200000","https://zillow.com/homedetails/2135-Highgate-Rd-Westlake-Village-CA-91361/16492462_zpid/","34.13811","-118.839584","SINGLE_FAMILY","2267200","7613","https://photos.zillowstatic.com/fp/6f355dfa2277ae97e4d32a016afb5006-p_e.jpg"
"963 Dunlin Ct, Westlake Village, CA 91361","91361","Westlake Village","CA","1250000","4","2","1838","680.09","6827","sqft","5/1/2024","1714546800000","https://zillow.com/homedetails/963-Dunlin-Ct-Westlake-Village-CA-91361/16491989_zpid/","34.15408","-118.84151","SINGLE_FAMILY","1258900","5646","https://photos.zillowstatic.com/fp/d295f1140300b359526dff55a6d69d0d-p_e.jpg"
"32460 Timberridge Ct, Westlake Village, CA 91361","91361","Westlake Village","CA","2160000","4","4","3500","617.14","0.48466483011937556","acres","4/30/2024","1714460400000","https://zillow.com/homedetails/32460-Timberridge-Ct-Westlake-Village-CA-91361/19892114_zpid/","34.139202","-118.83077","SINGLE_FAMILY","2169300","9899","https://photos.zillowstatic.com/fp/6c579fad036fab0d7522496bb812db00-p_e.jpg"
"2334 Bayside Ct, Westlake Village, CA 91361","91361","Westlake Village","CA","1750000","5","3","2808","623.22","0.2938475665748393","acres","4/29/2024","1714374000000","https://zillow.com/homedetails/2334-Bayside-Ct-Westlake-Village-CA-91361/16492504_zpid/","34.140537","-118.834366","SINGLE_FAMILY","1763000","8054","https://maps.googleapis.com/maps/api/staticmap?mobile=false&sensor=true&maptype=satellite&size=575x242&zoom=17&center=34.14053726196289,-118.83436584472656&key=AIzaSyBJsNQO5ZeG-XAbqqWLKwG08fWITSxg33w&signature=6n0o2lVI3TZdf38uAKJgxGNf36o="
"310 Upper Lake Rd, Thousand Oaks, CA 91361","91361","Thousand Oaks","CA","2450000","2","3","2496","981.57","0.2699724517906336","acres","4/29/2024","1714374000000","https://zillow.com/homedetails/310-Upper-Lake-Rd-Thousand-Oaks-CA-91361/96099555_zpid/","34.135036","-118.86968","SINGLE_FAMILY","2468200","6543","https://photos.zillowstatic.com/fp/c97f3f1454e2d67fca9dc56e3117bd29-p_e.jpg"
"2430 Swanfield Ct, Westlake Village, CA 91361","91361","Westlake Village","CA","1600000","2","3","1964","814.66","1121","sqft","4/29/2024","1714374000000","https://zillow.com/homedetails/2430-Swanfield-Ct-Westlake-Village-CA-91361/2073552935_zpid/","34.13541","-118.88649","TOWNHOUSE","1611900","5333","https://photos.zillowstatic.com/fp/8e7c8c7fca75a9e7d8a75807ad18fe91-p_e.jpg"
"330 Green Moor Pl, Thousand Oaks, CA 91361","91361","Thousand Oaks","CA","650000","2","2","1199","542.12","4356","sqft","4/25/2024","1714028400000","https://zillow.com/homedetails/330-Green-Moor-Pl-Thousand-Oaks-CA-91361/16484587_zpid/","34.172165","-118.88059","TOWNHOUSE","655200","3602","https://photos.zillowstatic.com/fp/b1ec5726c4094f6d1cd5511e80286571-p_e.jpg"
"2113 Portola Ln, Westlake Village, CA 91361","91361","Westlake Village","CA","845000","3","2","1500","563.33","6534","sqft","4/24/2024","1713942000000","https://zillow.com/homedetails/2113-Portola-Ln-Westlake-Village-CA-91361/16492837_zpid/","34.14884","-118.83886","CONDO","851900","4670","https://photos.zillowstatic.com/fp/2a404a5176b251257694b613cad8c17c-p_e.jpg"
"97 Sherwood Dr, Westlake Village, CA 91361","91361","Westlake Village","CA","502750","2","2","1120","448.88","3055","sqft","4/24/2024","1713942000000","https://zillow.com/homedetails/97-Sherwood-Dr-Westlake-Village-CA-91361/19891270_zpid/","34.132393","-118.81332","MANUFACTURED","505400","2991","https://photos.zillowstatic.com/fp/e470cee45a5b45790fce69c5a7428a38-p_e.jpg"
"1678 S Trafalgar Pl, Westlake Village, CA 91361","91361","Westlake Village","CA","131450","4","2","1750","75.11","6969","sqft","4/23/2024","1713855600000","https://zillow.com/homedetails/1678-S-Trafalgar-Pl-Westlake-Village-CA-91361/16491058_zpid/","34.14412","-118.85482","SINGLE_FAMILY","890800","5927","https://maps.googleapis.com/maps/api/staticmap?mobile=false&sensor=true&maptype=satellite&size=575x242&zoom=17&center=34.14411926269531,-118.85482025146484&key=AIzaSyBJsNQO5ZeG-XAbqqWLKwG08fWITSxg33w&signature=7klmDuyyz5NXlOa92gNWXDEUfKo="
"32033 Royceton Ct, Westlake Village, CA 91361","91361","Westlake Village","CA","1525000","4","3","2512","607.09","9093","sqft","4/23/2024","1713855600000","https://zillow.com/homedetails/32033-Royceton-Ct-Westlake-Village-CA-91361/19892890_zpid/","34.142654","-118.820045","SINGLE_FAMILY","1532400","7455","https://maps.googleapis.com/maps/api/staticmap?mobile=false&sensor=true&maptype=satellite&size=575x242&zoom=17&center=34.14265441894531,-118.8200454711914&key=AIzaSyBJsNQO5ZeG-XAbqqWLKwG08fWITSxg33w&signature=RoWQF4XYhPNYw7dTTzgCPODO2cI="
"31661 Village School Rd, Westlake Village, CA 91361","91361","Westlake Village","CA","1636100","4","3","2412","678.32","6940","sqft","4/23/2024","1713855600000","https://zillow.com/homedetails/31661-Village-School-Rd-Westlake-Village-CA-91361/19893340_zpid/","34.144302","-118.8104","SINGLE_FAMILY","1644400","7659","https://photos.zillowstatic.com/fp/4885e7e515496be654dec78b56062c2b-p_e.jpg"
"1570 Heather Oaks Ln, Thousand Oaks, CA 91361","91361","Thousand Oaks","CA","2240000","5","4","4226","530.05","0.3223370064279155","acres","4/22/2024","1713769200000","https://zillow.com/homedetails/1570-Heather-Oaks-Ln-Thousand-Oaks-CA-91361/16471592_zpid/","34.14612","-118.85848","SINGLE_FAMILY","2258900","8689","https://photos.zillowstatic.com/fp/e206e859e893ed46f10aba402bfbf10b-p_e.jpg"
"489 S Oak Creek Dr, Thousand Oaks, CA 91361","91361","Thousand Oaks","CA","4400000","4","4","5774","762.04","1.2","acres","4/22/2024","1713769200000","https://zillow.com/homedetails/489-S-Oak-Creek-Dr-Thousand-Oaks-CA-91361/16484481_zpid/","34.170418","-118.8808","SINGLE_FAMILY","4437000","8162","https://photos.zillowstatic.com/fp/4b4337837c05c8437d936c477f421e6b-p_e.jpg"
"1164 Brookview Ave, Westlake Village, CA 91361","91361","Westlake Village","CA","1800000","4","3","2458","732.3","0.38395316804407714","acres","4/18/2024","1713423600000","https://zillow.com/homedetails/1164-Brookview-Ave-Westlake-Village-CA-91361/16491877_zpid/","34.15127","-118.84711","SINGLE_FAMILY","1816200","7451","https://photos.zillowstatic.com/fp/561319692782cac5ef58ed0b0aeceb8e-p_e.jpg"
"834 Ravensbury St, Westlake Village, CA 91361","91361","Westlake Village","CA","2550000","4","4","3777","675.14","9085","sqft","4/18/2024","1713423600000","https://zillow.com/homedetails/834-Ravensbury-St-Westlake-Village-CA-91361/2058071974_zpid/","34.141888","-118.86317","SINGLE_FAMILY","2581000","9995","https://photos.zillowstatic.com/fp/7b03b0cc0da3fbcef5966f22f6035089-p_e.jpg"
"2215 Portola Ln, Westlake Village, CA 91361","91361","Westlake Village","CA","835000","2","2","1402","595.58","6534","sqft","4/12/2024","1712905200000","https://zillow.com/homedetails/2215-Portola-Ln-Westlake-Village-CA-91361/16492912_zpid/","34.14683","-118.83722","TOWNHOUSE","856700","4261","https://photos.zillowstatic.com/fp/a76eb77b886ef28b4ffc7ddcea9d45c7-p_e.jpg"
"86 Queens Garden Dr, Thousand Oaks, CA 91361","91361","Thousand Oaks","CA","4800000","4","5","4503","1065.96","0.509090909090909","acres","4/11/2024","1712818800000","https://zillow.com/homedetails/86-Queens-Garden-Dr-Thousand-Oaks-CA-91361/96114654_zpid/","34.129272","-118.87402","SINGLE_FAMILY","4847900","18866","https://photos.zillowstatic.com/fp/258088d4f0d8f3dc4e827407aaaf92c7-p_e.jpg"
"2213 Hillsbury Rd, Westlake Village, CA 91361","91361","Westlake Village","CA","1550000","4","2","2140","724.3","0.31558769513314966","acres","4/10/2024","1712732400000","https://zillow.com/homedetails/2213-Hillsbury-Rd-Westlake-Village-CA-91361/16492556_zpid/","34.14295","-118.83781","SINGLE_FAMILY","1565700","6266","https://photos.zillowstatic.com/fp/2775c0a23541535632a5f619d83bac6d-p_e.jpg"
"86 Williamsburg Way, Thousand Oaks, CA 91361","91361","Thousand Oaks","CA","4350000","4","4","4475","972.07","0.46244260789715336","acres","4/9/2024","1712646000000","https://zillow.com/homedetails/86-Williamsburg-Way-Thousand-Oaks-CA-91361/96081536_zpid/","34.127865","-118.87406","SINGLE_FAMILY","4394600","17110","https://photos.zillowstatic.com/fp/397dad26b013a76466e9c3841355429b-p_e.jpg"
"1228 S Westlake Blvd UNIT F, Westlake Village, CA 91361","91361","Westlake Village","CA","874000","2","3","1750","499.43","3920","sqft","4/5/2024","1712300400000","https://zillow.com/homedetails/1228-S-Westlake-Blvd-UNIT-F-Westlake-Village-CA-91361/16493664_zpid/","34.14764","-118.83551","CONDO","883500","4684","https://photos.zillowstatic.com/fp/1fde82d69460ad242a255c94f4ae03f5-p_e.jpg"
"1452 Cheswick Pl, Westlake Village, CA 91361","91361","Westlake Village","CA","1325000","4","3","2835","467.37","6668","sqft","4/3/2024","1712127600000","https://zillow.com/homedetails/1452-Cheswick-Pl-Westlake-Village-CA-91361/16491247_zpid/","34.1463","-118.84646","SINGLE_FAMILY","1848400","6760","https://photos.zillowstatic.com/fp/f642193af695a24764bdd02e31c4da6e-p_e.jpg"
"2600 Munnings Way, Thousand Oaks, CA 91361","91361","Thousand Oaks","CA","5125000","4","5","5835","878.32","0.99143709825528","acres","4/3/2024","1712127600000","https://zillow.com/homedetails/2600-Munnings-Way-Thousand-Oaks-CA-91361/241532913_zpid/","34.13074","-118.89609","SINGLE_FAMILY","5181900","20205","https://photos.zillowstatic.com/fp/5179a022ee1c7ffa2af946220707b6eb-p_e.jpg"
"2963 Shadow Brook Ln, Westlake Village, CA 91361","91361","Westlake Village","CA","1190000","3","3","2243","530.54","3920","sqft","3/28/2024","1711609200000","https://zillow.com/homedetails/2963-Shadow-Brook-Ln-Westlake-Village-CA-91361/16490547_zpid/","34.14981","-118.82153","TOWNHOUSE","1204400","6490","https://photos.zillowstatic.com/fp/4feaa3c29e1cd29dbf01e6d554b24b63-p_e.jpg"
"32115 Harborview Ln, Westlake Village, CA 91361","91361","Westlake Village","CA","1375000","3","3","2076","662.33","2981","sqft","3/28/2024","1711609200000","https://zillow.com/homedetails/32115-Harborview-Ln-Westlake-Village-CA-91361/19891617_zpid/","34.143124","-118.82185","TOWNHOUSE","1384400","6265","https://photos.zillowstatic.com/fp/2ca57ca24531188d45a6ae39f6538bd3-p_e.jpg"
"1178 Landsburn Cir, Westlake Village, CA 91361","91361","Westlake Village","CA","550000","2","1","920","597.83","3049","sqft","3/27/2024","1711522800000","https://zillow.com/homedetails/1178-Landsburn-Cir-Westlake-Village-CA-91361/16490321_zpid/","34.147915","-118.82327","TOWNHOUSE","","3179","https://photos.zillowstatic.com/fp/d71cab954e6b0fb263bfc2eff9479e7a-p_e.jpg"
"1620 Strandway Ct, Westlake Village, CA 91361","91361","Westlake Village","CA","1499000","4","3","2490","602.01","9643","sqft","3/27/2024","1711522800000","https://zillow.com/homedetails/1620-Strandway-Ct-Westlake-Village-CA-91361/16492653_zpid/","34.144333","-118.84569","SINGLE_FAMILY","1441100","6527","https://photos.zillowstatic.com/fp/0144bc0dda418798b193ac458f3e4a23-p_e.jpg"
"4511 Regents Ct, Westlake Village, CA 91361","91361","Westlake Village","CA","2066000","5","5","3804","543.11","8610","sqft","3/27/2024","1711522800000","https://zillow.com/homedetails/4511-Regents-Ct-Westlake-Village-CA-91361/19892796_zpid/","34.147083","-118.81657","SINGLE_FAMILY","2080400","13274","https://photos.zillowstatic.com/fp/060f394d564c663c6b4d96b39c1145b5-p_e.jpg"
"32124 Canyon Ridge Dr, Westlake Village, CA 91361","91361","Westlake Village","CA","1155000","3","3","2242","515.17","2146","sqft","3/21/2024","1711004400000","https://zillow.com/homedetails/32124-Canyon-Ridge-Dr-Westlake-Village-CA-91361/19891100_zpid/","34.133938","-118.81967","TOWNHOUSE","1163700","5493","https://photos.zillowstatic.com/fp/459e0152eff864721fcba84dc509e160-p_e.jpg"
"2183 Kinross Ct, Westlake Village, CA 91361","91361","Westlake Village","CA","1895000","4","3","2823","671.27","0.4216712580348944","acres","3/20/2024","1710918000000","https://zillow.com/homedetails/2183-Kinross-Ct-Westlake-Village-CA-91361/16492741_zpid/","34.145164","-118.83921","SINGLE_FAMILY","1899800","7899","https://photos.zillowstatic.com/fp/948a0f81260ac3d49da0d29d545596b5-p_e.jpg"
"287 Green Heath Pl, Thousand Oaks, CA 91361","91361","Thousand Oaks","CA","580000","2","2","1021","568.07","4356","sqft","3/19/2024","1710831600000","https://zillow.com/homedetails/287-Green-Heath-Pl-Thousand-Oaks-CA-91361/16484704_zpid/","34.174866","-118.88221","TOWNHOUSE","587900","3080","https://photos.zillowstatic.com/fp/817065ff67483c4844c246777c14fad4-p_e.jpg"
"1012 S Evenstar Ave, Westlake Village, CA 91361","91361","Westlake Village","CA","1430000","5","3","2195","651.48","7656","sqft","3/19/2024","1710831600000","https://zillow.com/homedetails/1012-S-Evenstar-Ave-Westlake-Village-CA-91361/16491508_zpid/","34.152145","-118.83473","SINGLE_FAMILY","1449600","6057","https://photos.zillowstatic.com/fp/c06a45e43e010d92eec1ceb9fc8b016e-p_e.jpg"
"1508 Thornhill Ave, Westlake Village, CA 91361","91361","Westlake Village","CA","1300375","4","3","2252","577.43","0.33615702479338844","acres","3/19/2024","1710831600000","https://zillow.com/homedetails/1508-Thornhill-Ave-Westlake-Village-CA-91361/16491683_zpid/","34.14966","-118.85195","SINGLE_FAMILY","1765100","6523","https://photos.zillowstatic.com/fp/42c3207b2ac438423db78c14b81741bb-p_e.jpg"
"2739 Lakewood Pl, Westlake Village, CA 91361","91361","Westlake Village","CA","1210000","3","2","1636","739.61","3729","sqft","3/19/2024","1710831600000","https://zillow.com/homedetails/2739-Lakewood-Pl-Westlake-Village-CA-91361/16493347_zpid/","34.1482","-118.826195","SINGLE_FAMILY","1226500","5188","https://photos.zillowstatic.com/fp/a9b7c3e4d8ba923aa6bb162ac71e213b-p_e.jpg"
"2318 Waterby St, Westlake Village, CA 91361","91361","Westlake Village","CA","1435000","3","2","1780","806.18","6600","sqft","3/18/2024","1710745200000","https://zillow.com/homedetails/2318-Waterby-St-Westlake-Village-CA-91361/16491552_zpid/","34.15073","-118.83467","SINGLE_FAMILY","1454900","4902","https://photos.zillowstatic.com/fp/c1cb00cc4eb4346c68935ac47221c5dc-p_e.jpg"
"737 Coral Ridge Ct, Westlake, CA 91361","91361","Westlake","CA","2000000","4","5","4166","480.08","0.35805785123966943","acres","3/15/2024","1710486000000","https://zillow.com/homedetails/737-Coral-Ridge-Ct-Westlake-CA-91361/16471471_zpid/","34.160683","-118.84168","SINGLE_FAMILY","2028700","14749","https://photos.zillowstatic.com/fp/ad566d92a0dd2c19192a87fb2bf206ec-p_e.jpg"
"2086 Antares Ct, Westlake Village, CA 91361","91361","Westlake Village","CA","2000000","5","4.5","4012","498.5","0.5143939393939394","acres","3/15/2024","1710486000000","https://zillow.com/homedetails/2086-Antares-Ct-Westlake-Village-CA-91361/16471480_zpid/","34.157513","-118.84064","SINGLE_FAMILY","","9399","https://photos.zillowstatic.com/fp/28a302190748849eff1ed3331a7369ef-p_e.jpg"
"230 Lake Sherwood Dr, Thousand Oaks, CA 91361","91361","Thousand Oaks","CA","3450000","5","5","5113","674.75","0.5938","acres","3/14/2024","1710399600000","https://zillow.com/homedetails/230-Lake-Sherwood-Dr-Thousand-Oaks-CA-91361/16490631_zpid/","34.14218","-118.87227","SINGLE_FAMILY","3500200","13692","https://photos.zillowstatic.com/fp/247f2ef9e3eb1188ef793d1d670369c7-p_e.jpg"
"2107 Trentham Rd, Thousand Oaks, CA 91361","91361","Thousand Oaks","CA","2500000","4","4","3089","809.32","0.34205693296602385","acres","3/14/2024","1710399600000","https://zillow.com/homedetails/2107-Trentham-Rd-Thousand-Oaks-CA-91361/16490662_zpid/","34.139236","-118.861046","SINGLE_FAMILY","2536400","8004","https://photos.zillowstatic.com/fp/f68fe98c034aa4b9f73073dce22f3a38-p_e.jpg"
"2816 Ladbrook Way, Thousand Oaks, CA 91361","91361","Thousand Oaks","CA","5650000","5","6","6238","905.74","0.4952479338842975","acres","3/14/2024","1710399600000","https://zillow.com/homedetails/2816-Ladbrook-Way-Thousand-Oaks-CA-91361/16490848_zpid/","34.12763","-118.89076","SINGLE_FAMILY","5732200","22424","https://photos.zillowstatic.com/fp/79de3c6e24ef84ac1fec66f0f664850d-p_e.jpg"
"32130 Canyon Crest Ct, Westlake Village, CA 91361","91361","Westlake Village","CA","1185000","3","3","2263","523.64","2050","sqft","3/14/2024","1710399600000","https://zillow.com/homedetails/32130-Canyon-Crest-Ct-Westlake-Village-CA-91361/19891079_zpid/","34.134438","-118.82026","TOWNHOUSE","1194700","5540","https://photos.zillowstatic.com/fp/c7ee9144f064cc26763f4e9c97993933-p_e.jpg"
"31574 Foxfield Dr, Westlake Village, CA 91361","91361","Westlake Village","CA","2995000","4","4","3949","758.42","0.6359274563820019","acres","3/13/2024","1710313200000","https://zillow.com/homedetails/31574-Foxfield-Dr-Westlake-Village-CA-91361/19890818_zpid/","34.140713","-118.80885","SINGLE_FAMILY","3019700","10950","https://photos.zillowstatic.com/fp/a6a1722c1d431f38e6cf87881a4ee6a2-p_e.jpg"
"101 Merry Oak Ln, Westlake Village, CA 91361","91361","Westlake Village","CA","620000","2","2","1272","487.42","4510","sqft","3/12/2024","1710226800000","https://zillow.com/homedetails/101-Merry-Oak-Ln-Westlake-Village-CA-91361/19891274_zpid/","34.13212","-118.81289","SINGLE_FAMILY","625200","4727","https://photos.zillowstatic.com/fp/e78f3385a46f6d99b83919562446bc23-p_e.jpg"
"2543 Sandycreek Dr, Westlake Village, CA 91361","91361","Westlake Village","CA","1940000","4","3","2823","687.21","10103","sqft","3/12/2024","1710226800000","https://zillow.com/homedetails/2543-Sandycreek-Dr-Westlake-Village-CA-91361/19892424_zpid/","34.132023","-118.8399","SINGLE_FAMILY","1956200","7664","https://photos.zillowstatic.com/fp/16d3bbe14f0df3f0f418490ce791eeda-p_e.jpg"
"32988 Denver Springs Dr, Westlake Village, CA 91361","91361","Westlake Village","CA","2825000","5","5","4657","606.61","0.8198576675849403","acres","3/12/2024","1710226800000","https://zillow.com/homedetails/32988-Denver-Springs-Dr-Westlake-Village-CA-91361/19892652_zpid/","34.12828","-118.853264","SINGLE_FAMILY","2848600","16499","https://photos.zillowstatic.com/fp/ecbc58a166c456f3bc2d7b151a17c986-p_e.jpg"
"4517 Knightsgate Rd, Westlake Village, CA 91361","91361","Westlake Village","CA","500000","2","2","1685","296.74","7127","sqft","3/11/2024","1710140400000","https://zillow.com/homedetails/4517-Knightsgate-Rd-Westlake-Village-CA-91361/19892725_zpid/","34.14717","-118.8097","SINGLE_FAMILY","504200","4616","https://maps.googleapis.com/maps/api/staticmap?mobile=false&sensor=true&maptype=satellite&size=575x242&zoom=17&center=34.14717102050781,-118.80970001220703&key=AIzaSyBJsNQO5ZeG-XAbqqWLKwG08fWITSxg33w&signature=tBm9H8QZ7TDycD0b2eNJEp-h8yE="
"1243 Clippers Cir, Westlake Village, CA 91361","91361","Westlake Village","CA","1085000","3","2","1626","667.28","8276","sqft","3/8/2024","1709884800000","https://zillow.com/homedetails/1243-Clippers-Cir-Westlake-Village-CA-91361/16493727_zpid/","34.146202","-118.835396","TOWNHOUSE","","5298","https://photos.zillowstatic.com/fp/56ce1e798521052e408051d74a0f7b48-p_e.jpg"
"2100 Trentham Rd, Thousand Oaks, CA 91361","91361","Thousand Oaks","CA","4500000","4","5","5778","778.82","0.279178145087236","acres","3/4/2024","1709539200000","https://zillow.com/homedetails/2100-Trentham-Rd-Thousand-Oaks-CA-91361/96107993_zpid/","34.13939","-118.86039","SINGLE_FAMILY","4573400","17919","https://photos.zillowstatic.com/fp/30cea0ff1e8bad5ce84d9a7a3f74082c-p_e.jpg"
"1172 Landsburn Cir, Westlake Village, CA 91361","91361","Westlake Village","CA","3900","3","2","1020","3.82","3049","sqft","3/2/2024","1709366400000","https://zillow.com/homedetails/1172-Landsburn-Cir-Westlake-Village-CA-91361/16490319_zpid/","34.14789","-118.82311","APARTMENT","594200","3677","https://photos.zillowstatic.com/fp/5714360e2dcccaa70b75d62b02760ef2-p_e.jpg"
"1465 S Cheswick Pl, Westlake Village, CA 91361","91361","Westlake Village","CA","1400000","4","3","2490","562.25","6725","sqft","2/29/2024","1709193600000","https://zillow.com/homedetails/1465-S-Cheswick-Pl-Westlake-Village-CA-91361/16491230_zpid/","34.145912","-118.846725","SINGLE_FAMILY","","6545","https://photos.zillowstatic.com/fp/c0ef58a3a8a783a24d5fcfb0ad8d6c78-p_e.jpg"
"2045 Glastonbury Rd, Westlake Village, CA 91361","91361","Westlake Village","CA","1675000","5","4","3106","539.28","10833","sqft","2/29/2024","1709193600000","https://zillow.com/homedetails/2045-Glastonbury-Rd-Westlake-Village-CA-91361/16492970_zpid/","34.14101","-118.84308","SINGLE_FAMILY","1703600","8000","https://photos.zillowstatic.com/fp/b4957de6d062ddb7fd073d123027987b-p_e.jpg"
"32220 Oakshore Dr, Westlake Village, CA 91361","91361","Westlake Village","CA","9500","4","3","3102","3.06","6853","sqft","2/24/2024","1708761600000","https://zillow.com/homedetails/32220-Oakshore-Dr-Westlake-Village-CA-91361/19891908_zpid/","34.142574","-118.82773","SINGLE_FAMILY","3173400","7500","https://photos.zillowstatic.com/fp/539a70f0c03b308852b1637230a88fbc-p_e.jpg"
"1650 Oakcottage Ct, Thousand Oaks, CA 91361","91361","Thousand Oaks","CA","2200000","4","3","3005","732.11","0.33271349862258953","acres","2/23/2024","1708675200000","https://zillow.com/homedetails/1650-Oakcottage-Ct-Thousand-Oaks-CA-91361/16471502_zpid/","34.14579","-118.870766","SINGLE_FAMILY","2240300","8192","https://photos.zillowstatic.com/fp/6750335aa6f1f4fcb729df7eb40a615a-p_e.jpg"
"32106 Canyon Ridge Dr, Westlake Village, CA 91361","91361","Westlake Village","CA","1290000","4","3","2618","492.74","2411","sqft","2/20/2024","1708416000000","https://zillow.com/homedetails/32106-Canyon-Ridge-Dr-Westlake-Village-CA-91361/19891091_zpid/","34.133938","-118.81874","TOWNHOUSE","1303600","6469","https://photos.zillowstatic.com/fp/46e673c5c014b6be13949da8fc0858a8-p_e.jpg"
"32195 Sailview Ln, Westlake Village, CA 91361","91361","Westlake Village","CA","1850000","3","3","2123","871.41","3704","sqft","2/16/2024","1708070400000","https://zillow.com/homedetails/32195-Sailview-Ln-Westlake-Village-CA-91361/19891640_zpid/","34.142773","-118.823166","SINGLE_FAMILY","1870400","7112","https://photos.zillowstatic.com/fp/03d5a4f7b2efb6af1e266bded50ec096-p_e.jpg"
"227 Green Heath Pl, Thousand Oaks, CA 91361","91361","Thousand Oaks","CA","615000","3","3","1355","453.87","4356","sqft","2/15/2024","1707984000000","https://zillow.com/homedetails/227-Green-Heath-Pl-Thousand-Oaks-CA-91361/16484702_zpid/","34.17517","-118.88187","CONDO","627300","3697","https://photos.zillowstatic.com/fp/8a7ffa1030e2eac98c77427c2f42bd6f-p_e.jpg"
"107 Merry Oak Ln, Westlake Village, CA 91361","91361","Westlake Village","CA","472000","2","2","1536","307.29","5092","sqft","2/15/2024","1707984000000","https://zillow.com/homedetails/107-Merry-Oak-Ln-Westlake-Village-CA-91361/19891280_zpid/","34.132225","-118.81394","MANUFACTURED","286200","3217","https://photos.zillowstatic.com/fp/b4556d12186e224cf3f286520a3328cd-p_e.jpg"
"1461 Flinton Ct, Westlake Village, CA 91361","91361","Westlake Village","CA","1586100","4","2","2217","715.43","0.2808080808080808","acres","2/14/2024","1707897600000","https://zillow.com/homedetails/1461-Flinton-Ct-Westlake-Village-CA-91361/16492732_zpid/","34.14532","-118.83985","SINGLE_FAMILY","","6692","https://photos.zillowstatic.com/fp/72ee22e01f4d74d28c0abbf04d86e916-p_e.jpg"
"4134 La Venta Dr, Westlake Village, CA 91361","91361","Westlake Village","CA","2470000","3","2","1970","1253.81","5665","sqft","2/13/2024","1707811200000","https://zillow.com/homedetails/4134-La-Venta-Dr-Westlake-Village-CA-91361/19891918_zpid/","34.144203","-118.82735","SINGLE_FAMILY","2498100","6145","https://photos.zillowstatic.com/fp/9b13978a32250f8f61c4e428c61fe60c-p_e.jpg"
"260 David Ln, Thousand Oaks, CA 91361","91361","Thousand Oaks","CA","3672000","4","4","4158","883.12","0.5129476584022039","acres","2/13/2024","1707811200000","https://zillow.com/homedetails/260-David-Ln-Thousand-Oaks-CA-91361/64872797_zpid/","34.141155","-118.87192","SINGLE_FAMILY","3747200","14708","https://photos.zillowstatic.com/fp/161e67ea24b34e5bd14b1eaf0c082ae4-p_e.jpg"
"1245 Center Court Dr, Westlake Village, CA 91361","91361","Westlake Village","CA","970000","3","2","1626","596.56","8276","sqft","2/12/2024","1707724800000","https://zillow.com/homedetails/1245-Center-Court-Dr-Westlake-Village-CA-91361/16493738_zpid/","34.146744","-118.83596","CONDO","990100","4658","https://maps.googleapis.com/maps/api/staticmap?mobile=false&sensor=true&maptype=satellite&size=575x242&zoom=17&center=34.14674377441406,-118.8359603881836&key=AIzaSyBJsNQO5ZeG-XAbqqWLKwG08fWITSxg33w&signature=E5bueH8oIkl0aDRYtEHX2fnjt0o="
"1245 Center Ct, Westlake Village, CA 91361","91361","Westlake Village","CA","970000","3","2","1626","596.56","8276","sqft","2/12/2024","1707724800000","https://zillow.com/homedetails/1245-Center-Ct-Westlake-Village-CA-91361/2055593015_zpid/","34.14675","-118.835754","TOWNHOUSE","993500","4909","https://photos.zillowstatic.com/fp/de55cf7dbdc52a2021ca0157509907a5-p_e.jpg"
"474 Lake Sherwood Dr, Thousand Oaks, CA 91361","91361","Thousand Oaks","CA","4450000","4","6","6616","672.61","0.7185491276400368","acres","2/9/2024","1707465600000","https://zillow.com/homedetails/474-Lake-Sherwood-Dr-Thousand-Oaks-CA-91361/16490639_zpid/","34.141342","-118.86813","SINGLE_FAMILY","4552900","17845","https://photos.zillowstatic.com/fp/e81285f7938569b04feff27e401fa763-p_e.jpg"
"30929 Minute Man Way, Westlake Village, CA 91361","91361","Westlake Village","CA","800000","2","3","1407","568.59","20.4437","acres","2/8/2024","1707379200000","https://zillow.com/homedetails/30929-Minute-Man-Way-Westlake-Village-CA-91361/19890683_zpid/","34.1445","-118.79479","TOWNHOUSE","809600","5520","https://photos.zillowstatic.com/fp/69115ef2d1de9a12375f208be4fed997-p_e.jpg"
"2824 Instone Ct, Thousand Oaks, CA 91361","91361","Thousand Oaks","CA","651700","3","2","1020","638.92","3049","sqft","2/7/2024","1707292800000","https://zillow.com/homedetails/2824-Instone-Ct-Thousand-Oaks-CA-91361/16490225_zpid/","34.149895","-118.82513","CONDO","667400","3677","https://photos.zillowstatic.com/fp/dda1302f188b10f653600967a121793c-p_e.jpg"
"1281 S Willsbrook Ct, Westlake Village, CA 91361","91361","Westlake Village","CA","1550000","4","2","1879","824.91","8030","sqft","2/7/2024","1707292800000","https://zillow.com/homedetails/1281-S-Willsbrook-Ct-Westlake-Village-CA-91361/16491294_zpid/","34.148624","-118.844635","SINGLE_FAMILY","1586500","5587","https://photos.zillowstatic.com/fp/88b29d11d659d43a897b8866325982d6-p_e.jpg"
"2663 Country Ln, Westlake Village, CA 91361","91361","Westlake Village","CA","1900000","4","3","2294","828.25","0.2515381083562902","acres","2/6/2024","1707206400000","https://zillow.com/homedetails/2663-Country-Ln-Westlake-Village-CA-91361/19892374_zpid/","34.134186","-118.84033","SINGLE_FAMILY","1924100","7361","https://photos.zillowstatic.com/fp/3b03f0d963f631559709d42921869eea-p_e.jpg"
"537 Oakhampton St, Thousand Oaks, CA 91361","91361","Thousand Oaks","CA","2685000","5","5","4956","541.77","0.8350091827364554","acres","2/2/2024","1706860800000","https://zillow.com/homedetails/537-Oakhampton-St-Thousand-Oaks-CA-91361/16484921_zpid/","34.167274","-118.868904","SINGLE_FAMILY","2751300","10789","https://photos.zillowstatic.com/fp/5adc7bb6baed6741c51fe570cb9c6426-p_e.jpg"
"1636 S Elmsford Pl, Westlake Village, CA 91361","91361","Westlake Village","CA","7000","4","3","2490","2.81","6969","sqft","1/31/2024","1706688000000","https://zillow.com/homedetails/1636-S-Elmsford-Pl-Westlake-Village-CA-91361/16491095_zpid/","34.1447","-118.85322","SINGLE_FAMILY","1251600","6315","https://maps.googleapis.com/maps/api/staticmap?mobile=false&sensor=true&maptype=satellite&size=575x242&zoom=17&center=34.14469909667969,-118.85321807861328&key=AIzaSyBJsNQO5ZeG-XAbqqWLKwG08fWITSxg33w&signature=75wCywpQxlXEYmzoGoKvKqtpEj4="
"2130 Basswood Ct, Westlake Village, CA 91361","91361","Westlake Village","CA","1380000","5","3","2711","509.04","7500","sqft","1/31/2024","1706688000000","https://zillow.com/homedetails/2130-Basswood-Ct-Westlake-Village-CA-91361/16492141_zpid/","34.157856","-118.83938","SINGLE_FAMILY","1414700","6505","https://photos.zillowstatic.com/fp/154d1842f3246de5aa35d4cd7eda503e-p_e.jpg"
"2116 Glastonbury Rd, Westlake Village, CA 91361","91361","Westlake Village","CA","1585000","4","3","2680","591.42","8276","sqft","1/31/2024","1706688000000","https://zillow.com/homedetails/2116-Glastonbury-Rd-Westlake-Village-CA-91361/16492957_zpid/","34.142822","-118.84092","SINGLE_FAMILY","2039200","7281","https://photos.zillowstatic.com/fp/e75a329c0e9ee93b2afb6cac49763067-p_e.jpg"
"31014 Old Colony Way, Westlake Village, CA 91361","91361","Westlake Village","CA","960000","3","3","1658","579.01","20.4499","acres","1/31/2024","1706688000000","https://zillow.com/homedetails/31014-Old-Colony-Way-Westlake-Village-CA-91361/19890613_zpid/","34.142845","-118.7978","CONDO","1037700","4791","https://photos.zillowstatic.com/fp/d465f5c5db626771e49ef9ab00404d22-p_e.jpg"
"4156 Lake Harbor Ln, Westlake Village, CA 91361","91361","Westlake Village","CA","790000","2","2","1131","698.5","8.5523","acres","1/31/2024","1706688000000","https://zillow.com/homedetails/4156-Lake-Harbor-Ln-Westlake-Village-CA-91361/19891429_zpid/","34.1451","-118.82179","CONDO","800200","3789","https://photos.zillowstatic.com/fp/879398b135daea2b39acb09e14c9abaa-p_e.jpg"
"289 E Upper Lake Rd, Thousand Oaks, CA 91361","91361","Thousand Oaks","CA","1973285","3","3","3479","567.2","9800","sqft","1/29/2024","1706515200000","https://zillow.com/homedetails/289-E-Upper-Lake-Rd-Thousand-Oaks-CA-91361/16490722_zpid/","34.135014","-118.870834","SINGLE_FAMILY","2023900","7146","https://photos.zillowstatic.com/fp/ff980ffdf8fc848a179607399e49bcb2-p_e.jpg"
"3520 Ridgeford Dr, Westlake Village, CA 91361","91361","Westlake Village","CA","1485750","4","3","3279","453.11","0.631198347107438","acres","1/29/2024","1706515200000","https://zillow.com/homedetails/3520-Ridgeford-Dr-Westlake-Village-CA-91361/19890988_zpid/","34.135178","-118.81273","SINGLE_FAMILY","","9899","https://photos.zillowstatic.com/fp/290e2bea2a841f111448761c2661d942-p_e.jpg"
"520 Lake Sherwood Dr, Thousand Oaks, CA 91361","91361","Thousand Oaks","CA","4150000","5","7","4602","901.78","0.33000459136822774","acres","1/29/2024","1706515200000","https://zillow.com/homedetails/520-Lake-Sherwood-Dr-Thousand-Oaks-CA-91361/96115512_zpid/","34.142197","-118.867195","SINGLE_FAMILY","4256000","16691","https://photos.zillowstatic.com/fp/42ae9cf8c57bba5ea1c377659687f4cc-p_e.jpg"
"2861 Instone Ct, Westlake Village, CA 91361","91361","Westlake Village","CA","639500","3","2","1020","626.96","3049","sqft","1/26/2024","1706256000000","https://zillow.com/homedetails/2861-Instone-Ct-Westlake-Village-CA-91361/16490255_zpid/","34.1496","-118.82433","CONDO","656300","3677","https://photos.zillowstatic.com/fp/1504b8b6fb94b7d42c834ca009a988de-p_e.jpg"
"875 Sorrelwood Ct, Westlake Village, CA 91361","91361","Westlake Village","CA","1317000","3","3","2207","596.74","6600","sqft","1/25/2024","1706169600000","https://zillow.com/homedetails/875-Sorrelwood-Ct-Westlake-Village-CA-91361/16492079_zpid/","34.155502","-118.84329","SINGLE_FAMILY","1351800","6102","https://photos.zillowstatic.com/fp/0c89911e68662d4fe7dcc4aa043df1d0-p_e.jpg"
"2406 Swanfield Ct, Westlake Village, CA 91361","91361","Westlake Village","CA","1825000","3","3","2835","643.74","2835","sqft","1/25/2024","1706169600000","https://zillow.com/homedetails/2406-Swanfield-Ct-Westlake-Village-CA-91361/2062155179_zpid/","34.135494","-118.88633","TOWNHOUSE","1876300","6290","https://photos.zillowstatic.com/fp/ca1f3087b8d9aab6c0b67abad59976ad-p_e.jpg"
"1209 Landsburn Cir, Westlake Village, CA 91361","91361","Westlake Village","CA","525000","2","1","924","568.18","3049","sqft","1/24/2024","1706083200000","https://zillow.com/homedetails/1209-Landsburn-Cir-Westlake-Village-CA-91361/16490386_zpid/","34.147846","-118.82413","TOWNHOUSE","539400","3187","https://photos.zillowstatic.com/fp/2bdab89ee35519c7542c4f066e2b206f-p_e.jpg"
"32118 Canyon Crest Ct, Westlake Village, CA 91361","91361","Westlake Village","CA","1150000","3","3","2685","428.31","2394","sqft","1/24/2024","1706083200000","https://zillow.com/homedetails/32118-Canyon-Crest-Ct-Westlake-Village-CA-91361/19891085_zpid/","34.13441","-118.81963","TOWNHOUSE","1165900","6330","https://photos.zillowstatic.com/fp/69291f669b6be9a14423533c71d7819a-p_e.jpg"
"588 Carlisle Rd, Thousand Oaks, CA 91361","91361","Thousand Oaks","CA","1275000","","","","","4.88","acres","1/19/2024","1705651200000","https://zillow.com/homedetails/588-Carlisle-Rd-Thousand-Oaks-CA-91361/96097881_zpid/","34.123756","-118.86741","LOT","","4172","https://photos.zillowstatic.com/fp/280b0e8c870623d8bfa341a873a3d0a9-p_e.jpg"
"588 E Carlisle Rd, Westlake Village, CA 91361","91361","Westlake Village","CA","1275000","","","","","4.88","acres","1/19/2024","1705651200000","https://zillow.com/homedetails/588-E-Carlisle-Rd-Westlake-Village-CA-91361/2069759851_zpid/","34.12376","-118.86741","LOT","","5823","https://photos.zillowstatic.com/fp/e349683d66d7b453c8c60dde9f8f3572-p_e.jpg"
"1162 S Westlake Blvd UNIT D, Westlake Village, CA 91361","91361","Westlake Village","CA","940000","3","3","1818","517.05","3920","sqft","1/18/2024","1705564800000","https://zillow.com/homedetails/1162-S-Westlake-Blvd-UNIT-D-Westlake-Village-CA-91361/16493498_zpid/","34.15225","-118.83551","CONDO","966300","4683","https://photos.zillowstatic.com/fp/7cb5e682c90ec35771a17293364a0068-p_e.jpg"
"120 Merry Oak Ln, Westlake Village, CA 91361","91361","Westlake Village","CA","500000","2","2","1488","336.02","6414","sqft","1/17/2024","1705478400000","https://zillow.com/homedetails/120-Merry-Oak-Ln-Westlake-Village-CA-91361/19891243_zpid/","34.131886","-118.8135","MANUFACTURED","507300","3195","https://maps.googleapis.com/maps/api/staticmap?mobile=false&sensor=true&maptype=satellite&size=575x242&zoom=17&center=34.13188552856445,-118.8134994506836&key=AIzaSyBJsNQO5ZeG-XAbqqWLKwG08fWITSxg33w&signature=HO5Vg_vNrzwohRvxP4rKMufczx8="
"120 Merry Oak Ln #0, Westlake Village, CA 91361","91361","Westlake Village","CA","500000","2","2","1363","366.84","6414","sqft","1/17/2024","1705478400000","https://zillow.com/homedetails/120-Merry-Oak-Ln-0-Westlake-Village-CA-91361/2055116912_zpid/","34.131878","-118.81349","MANUFACTURED","506200","3154","https://photos.zillowstatic.com/fp/7c222441413cad634f6a6fffce08bc85-p_e.jpg"
"3918 Clearford Ct, Westlake Village, CA 91361","91361","Westlake Village","CA","2350000","4","3","2512","935.51","8190","sqft","1/16/2024","1705392000000","https://zillow.com/homedetails/3918-Clearford-Ct-Westlake-Village-CA-91361/19892967_zpid/","34.141117","-118.81645","SINGLE_FAMILY","2384800","7425","https://photos.zillowstatic.com/fp/998674ea2d30f7130bcdc19dd47b5192-p_e.jpg"
"2271 Westshore Ln, Westlake Village, CA 91361","91361","Westlake Village","CA","8000","3","3","2051","3.9","8276","sqft","1/12/2024","1705046400000","https://zillow.com/homedetails/2271-Westshore-Ln-Westlake-Village-CA-91361/16493713_zpid/","34.145424","-118.83471","CONDO","1614100","5197","https://maps.googleapis.com/maps/api/staticmap?mobile=false&sensor=true&maptype=satellite&size=575x242&zoom=17&center=34.145423889160156,-118.83470916748047&key=AIzaSyBJsNQO5ZeG-XAbqqWLKwG08fWITSxg33w&signature=m51vz_bJXAO8hVQqcSKf6SJMudg="
"3435 Twin Lake Rdg, Westlake Village, CA 91361","91361","Westlake Village","CA","2050000","5","5","3790","540.9","0.2502525252525252","acres","1/12/2024","1705046400000","https://zillow.com/homedetails/3435-Twin-Lake-Rdg-Westlake-Village-CA-91361/19892190_zpid/","34.135166","-118.82961","SINGLE_FAMILY","2081400","12899","https://photos.zillowstatic.com/fp/261377aad34ccc8b44a34df4642f9acf-p_e.jpg"
"1046 S Barrow Ct, Westlake Village, CA 91361","91361","Westlake Village","CA","1200000","3","2","1724","696.06","6000","sqft","1/11/2024","1704960000000","https://zillow.com/homedetails/1046-S-Barrow-Ct-Westlake-Village-CA-91361/16491426_zpid/","34.15164","-118.83856","SINGLE_FAMILY","1234300","5177","https://photos.zillowstatic.com/fp/3a8cb0c3710d22e563388f6491e13e69-p_e.jpg"
"31744 Bainbrook Ct, Westlake Village, CA 91361","91361","Westlake Village","CA","1325000","4","2","2371","558.84","7445","sqft","1/9/2024","1704787200000","https://zillow.com/homedetails/31744-Bainbrook-Ct-Westlake-Village-CA-91361/19893029_zpid/","34.141724","-118.81355","SINGLE_FAMILY","1345800","7381","https://photos.zillowstatic.com/fp/b64563055077a65e16f1bc40b92c8220-p_e.jpg"
"1660 Valecroft Ave, Thousand Oaks, CA 91361","91361","Thousand Oaks","CA","1575000","4","3","3192","493.42","0.30730027548209365","acres","1/8/2024","1704700800000","https://zillow.com/homedetails/1660-Valecroft-Ave-Thousand-Oaks-CA-91361/16491773_zpid/","34.153152","-118.853","SINGLE_FAMILY","1621000","7590","https://photos.zillowstatic.com/fp/5d7990cecb4046ffa059887df8a71764-p_e.jpg"
"4100 Lake Harbor Ln, Westlake Village, CA 91361","91361","Westlake Village","CA","780000","2","2","1131","689.66","8.5523","acres","1/8/2024","1704700800000","https://zillow.com/homedetails/4100-Lake-Harbor-Ln-Westlake-Village-CA-91361/19891458_zpid/","34.14455","-118.822105","CONDO","792300","3789","https://photos.zillowstatic.com/fp/c7949ead348f68221d9df5e76f0970db-p_e.jpg"
"32904 Denver Springs Dr, Westlake Village, CA 91361","91361","Westlake Village","CA","2282350","4","4","3562","640.75","0.9096877869605142","acres","1/8/2024","1704700800000","https://zillow.com/homedetails/32904-Denver-Springs-Dr-Westlake-Village-CA-91361/19892644_zpid/","34.126266","-118.850975","SINGLE_FAMILY","2318600","10950","https://maps.googleapis.com/maps/api/staticmap?mobile=false&sensor=true&maptype=satellite&size=575x242&zoom=17&center=34.12626647949219,-118.8509750366211&key=AIzaSyBJsNQO5ZeG-XAbqqWLKwG08fWITSxg33w&signature=jM3wIQZCT8PgX-gOckCpQWe8nb8="
"1056 Elfstone Ct, Westlake Village, CA 91361","91361","Westlake Village","CA","1350000","4","2","2002","674.33","7600","sqft","1/5/2024","1704441600000","https://zillow.com/homedetails/1056-Elfstone-Ct-Westlake-Village-CA-91361/16491458_zpid/","34.15081","-118.837456","SINGLE_FAMILY","1531000","5666","https://photos.zillowstatic.com/fp/3699bcba768b657604b1d6646de423a5-p_e.jpg"
"1426 Eastwind Cir, Westlake Village, CA 91361","91361","Westlake Village","CA","3650000","3","3","2673","1365.51","5690","sqft","1/5/2024","1704441600000","https://zillow.com/homedetails/1426-Eastwind-Cir-Westlake-Village-CA-91361/16493142_zpid/","34.145916","-118.82766","SINGLE_FAMILY","3760000","7364","https://photos.zillowstatic.com/fp/0d726ca7d84beff6ac1401c9b9eb3bfb-p_e.jpg"
"3838 Mainsail Cir, Westlake Village, CA 91361","91361","Westlake Village","CA","9275000","5","8","7391","1254.9","0.2836547291092746","acres","1/5/2024","1704441600000","https://zillow.com/homedetails/3838-Mainsail-Cir-Westlake-Village-CA-91361/122552669_zpid/","34.142292","-118.83002","SINGLE_FAMILY","9425100","37140","https://photos.zillowstatic.com/fp/135d77251955ceead89fd19f10261ef7-p_e.jpg"
"1136 Canterford Cir, Westlake Village, CA 91361","91361","Westlake Village","CA","685000","2","2","1149","596.17","6098","sqft","1/3/2024","1704268800000","https://zillow.com/homedetails/1136-Canterford-Cir-Westlake-Village-CA-91361/16490111_zpid/","34.15076","-118.826744","CONDO","705800","3687","https://photos.zillowstatic.com/fp/c953b822a24471d6933d00fdceed5967-p_e.jpg"
"1513 Covington Ave, Westlake Village, CA 91361","91361","Westlake Village","CA","2250000","5","4","2510","896.41","6580","sqft","1/3/2024","1704268800000","https://zillow.com/homedetails/1513-Covington-Ave-Westlake-Village-CA-91361/16491157_zpid/","34.146046","-118.8486","SINGLE_FAMILY","2318300","7332","https://photos.zillowstatic.com/fp/c843880e103a45f6be2fa5fce00d2fa9-p_e.jpg"
"3901 Middlegate Rd, Westlake Village, CA 91361","91361","Westlake Village","CA","1630500","4","2","1737","938.69","8794.764","sqft","1/3/2024","1704268800000","https://zillow.com/homedetails/3901-Middlegate-Rd-Westlake-Village-CA-91361/19892973_zpid/","34.140656","-118.81586","SINGLE_FAMILY","1658400","6745","https://photos.zillowstatic.com/fp/f1c2d16a49bc1f133acab9c458e537c2-p_e.jpg"
"4323 Hartfield Ct, Westlake Village, CA 91361","91361","Westlake Village","CA","1505303","4","3","2371","634.88","6637","sqft","1/3/2024","1704268800000","https://zillow.com/homedetails/4323-Hartfield-Ct-Westlake-Village-CA-91361/19893331_zpid/","34.144394","-118.81247","SINGLE_FAMILY","1530200","6925","https://photos.zillowstatic.com/fp/18b71beb2c8aa00207ce6137f7c04a7a-p_e.jpg"
"800 W Stafford Rd, Thousand Oaks, CA 91361","91361","Thousand Oaks","CA","5475000","4","5","4956","1104.72","0.8438246097337007","acres","1/3/2024","1704268800000","https://zillow.com/homedetails/800-W-Stafford-Rd-Thousand-Oaks-CA-91361/96106377_zpid/","34.12762","-118.895454","SINGLE_FAMILY","5641300","22143","https://photos.zillowstatic.com/fp/85d1dbdb44d173f3fd4e26fc1d0339e5-p_e.jpg"
"231 Rosemont Ct, Westlake Village, CA 91361","91361","Westlake Village","CA","1650000","3","3","2860","576.92","0.42293388429752066","acres","1/2/2024","1704182400000","https://zillow.com/homedetails/231-Rosemont-Ct-Westlake-Village-CA-91361/2075916869_zpid/","34.143867","-118.87209","SINGLE_FAMILY","1700500","6492","https://photos.zillowstatic.com/fp/92f95ffd077d4a6a5f3a48ed7ebc7cfc-p_e.jpg"
"1119 Stoneshead Ct, Westlake Village, CA 91361","91361","Westlake Village","CA","1725000","4","3","2357","731.86","0.7908631772268135","acres","12/28/2023","1703750400000","https://zillow.com/homedetails/1119-Stoneshead-Ct-Westlake-Village-CA-91361/16491873_zpid/","34.150845","-118.846344","SINGLE_FAMILY","1779700","7360","https://photos.zillowstatic.com/fp/7a179cd3a27bf940d8f422d499209ef4-p_e.jpg"
"2260 Knoll Crest Pl, Thousand Oaks, CA 91361","91361","Thousand Oaks","CA","1515000","4","2","2098","722.12","8257","sqft","12/22/2023","1703232000000","https://zillow.com/homedetails/2260-Knoll-Crest-Pl-Thousand-Oaks-CA-91361/16492350_zpid/","34.155968","-118.83631","SINGLE_FAMILY","1565000","5429","https://photos.zillowstatic.com/fp/b4a02eb4f1786d96b16580fd63b7591b-p_e.jpg"
"32038 Waterside Ln, Westlake Village, CA 91361","91361","Westlake Village","CA","926000","4","3","2246","412.29","4366","sqft","12/21/2023","1703145600000","https://zillow.com/homedetails/32038-Waterside-Ln-Westlake-Village-CA-91361/19891758_zpid/","34.13899","-118.82159","TOWNHOUSE","1490600","6483","https://photos.zillowstatic.com/fp/82d6baf5d96471231842f04ece4a669b-p_e.jpg"
"303 Hunters Point Dr, Thousand Oaks, CA 91361","91361","Thousand Oaks","CA","1450000","4","3","2683","540.44","9562","sqft","12/19/2023","1702972800000","https://zillow.com/homedetails/303-Hunters-Point-Dr-Thousand-Oaks-CA-91361/16484766_zpid/","34.17258","-118.87205","SINGLE_FAMILY","1498800","5274","https://photos.zillowstatic.com/fp/52ef920c47aef25a8a491d23a425802d-p_e.jpg"
"3830 Bowsprit Cir, Westlake Village, CA 91361","91361","Westlake Village","CA","2448000","4","3","2362","1036.41","5423","sqft","12/19/2023","1702972800000","https://zillow.com/homedetails/3830-Bowsprit-Cir-Westlake-Village-CA-91361/19891987_zpid/","34.1414","-118.829414","SINGLE_FAMILY","2495800","7354","https://photos.zillowstatic.com/fp/c34a24e0c1f67df4625a843fe864b460-p_e.jpg"
"2838 Instone Ct, Westlake, CA 91361","91361","Westlake","CA","545000","2","1","924","589.83","","","12/18/2023","1702886400000","https://zillow.com/homedetails/2838-Instone-Ct-Westlake-CA-91361/16490232_zpid/","34.149773","-118.82489","CONDO","","3028","https://photos.zillowstatic.com/fp/29a022b9e6dd80eda246dde47b2cc5c1-p_e.jpg"
"2880 Instone Ct, Westlake Village, CA 91361","91361","Westlake Village","CA","532500","2","1","924","576.3","3049","sqft","12/15/2023","1702627200000","https://zillow.com/homedetails/2880-Instone-Ct-Westlake-Village-CA-91361/16490342_zpid/","34.149017","-118.82367","CONDO","550900","3028","https://photos.zillowstatic.com/fp/6de9e4e167b7d39136ba0c1f079946ae-p_e.jpg"
"220 Dirt Rd, Thousand Oaks, CA 91361","91361","Thousand Oaks","CA","2575000","3","3","2812","915.72","0.3213957759412305","acres","12/15/2023","1702627200000","https://zillow.com/homedetails/220-Dirt-Rd-Thousand-Oaks-CA-91361/16490721_zpid/","34.134727","-118.87158","SINGLE_FAMILY","2663800","6775","https://photos.zillowstatic.com/fp/47fe668d96065ba4d195b283efdb59e9-p_e.jpg"
"2069 Channelford Rd, Westlake Village, CA 91361","91361","Westlake Village","CA","1521000","3","2","2128","714.76","0.32702020202020204","acres","12/15/2023","1702627200000","https://zillow.com/homedetails/2069-Channelford-Rd-Westlake-Village-CA-91361/16492593_zpid/","34.14536","-118.84166","SINGLE_FAMILY","2407300","6639","https://photos.zillowstatic.com/fp/12601f465f24086b877219b77ef4f1a7-p_e.jpg"
"31577 Lindero Canyon Rd UNIT 10, Westlake Village, CA 91361","91361","Westlake Village","CA","390000","1","1","473","824.52","10.6852","acres","12/15/2023","1702627200000","https://zillow.com/homedetails/31577-Lindero-Canyon-Rd-UNIT-10-Westlake-Village-CA-91361/19893586_zpid/","34.144352","-118.808624","CONDO","","2047","https://photos.zillowstatic.com/fp/2c38f3fb777f0f37135f7c0ce2247ee8-p_e.jpg"
"3465 Ridgeford Dr, Westlake Village, CA 91361","91361","Westlake Village","CA","2725000","5","5","3895","699.61","0.3501147842056933","acres","12/14/2023","1702540800000","https://zillow.com/homedetails/3465-Ridgeford-Dr-Westlake-Village-CA-91361/19891005_zpid/","34.136147","-118.81444","SINGLE_FAMILY","2777100","12999","https://photos.zillowstatic.com/fp/4591187c35d037390526004ae79c32e4-p_e.jpg"
"1159 Landsburn Cir, Westlake Village, CA 91361","91361","Westlake Village","CA","417500","2","1","924","451.84","3049","sqft","12/13/2023","1702454400000","https://zillow.com/homedetails/1159-Landsburn-Cir-Westlake-Village-CA-91361/16490328_zpid/","34.148285","-118.82343","CONDO","432100","3028","https://maps.googleapis.com/maps/api/staticmap?mobile=false&sensor=true&maptype=satellite&size=575x242&zoom=17&center=34.148284912109375,-118.82343292236328&key=AIzaSyBJsNQO5ZeG-XAbqqWLKwG08fWITSxg33w&signature=q3qeiqTJ1diwyKAXlCeqa39EU_U="
"3062 Winding Ln, Westlake Village, CA 91361","91361","Westlake Village","CA","1100000","3","3","2243","490.41","3484","sqft","12/13/2023","1702454400000","https://zillow.com/homedetails/3062-Winding-Ln-Westlake-Village-CA-91361/16490561_zpid/","34.150337","-118.82013","TOWNHOUSE","1138400","5058","https://photos.zillowstatic.com/fp/c948ff747319a47f5907511577291d9c-p_e.jpg"
"2214 Westshore Ln, Westlake Village, CA 91361","91361","Westlake Village","CA","1105000","3","2","1626","679.58","8276","sqft","12/13/2023","1702454400000","https://zillow.com/homedetails/2214-Westshore-Ln-Westlake-Village-CA-91361/16493731_zpid/","34.146614","-118.83541","CONDO","1143600","4658","https://photos.zillowstatic.com/fp/7f98e031658f59dd8a07a5236d04eb26-p_e.jpg"
"209 Rimrock Rd, Thousand Oaks, CA 91361","91361","Thousand Oaks","CA","310000","4","4","3310","93.66","2.829981634527089","acres","12/12/2023","1702368000000","https://zillow.com/homedetails/209-Rimrock-Rd-Thousand-Oaks-CA-91361/16481190_zpid/","34.17518","-118.866806","SINGLE_FAMILY","320900","6571","https://maps.googleapis.com/maps/api/staticmap?mobile=false&sensor=true&maptype=satellite&size=575x242&zoom=17&center=34.17517852783203,-118.86680603027344&key=AIzaSyBJsNQO5ZeG-XAbqqWLKwG08fWITSxg33w&signature=j78DHsY8m2_XVhzueKMgzhEOPxA="
"1269 Landsburn Cir, Thousand Oaks, CA 91361","91361","Thousand Oaks","CA","500000","2","1","924","541.13","3049","sqft","12/12/2023","1702368000000","https://zillow.com/homedetails/1269-Landsburn-Cir-Thousand-Oaks-CA-91361/16490450_zpid/","34.148678","-118.824776","CONDO","517600","3028","https://photos.zillowstatic.com/fp/c0837656070aa5308bcc448b4a71ac90-p_e.jpg"
