"address","zipCode","city","state","price","bed","bath","sqft","pricePerSf","lotArea","lotAreaType","dateSold","dateSoldNumeric","zillowUrl","latitude","longitude","homeType","zestimate","rentZestimate","imageUrl"
"2491 Markham Ave, Thousand Oaks, CA 91360","91360","Thousand Oaks","CA","962000","3","2","1561","616.27","8800","sqft","10/2/2024","1727852400000","https://zillow.com/homedetails/2491-Markham-Ave-Thousand-Oaks-CA-91360/16424708_zpid/","34.211517","-118.87768","SINGLE_FAMILY","","4387","https://photos.zillowstatic.com/fp/2219e6b08f41f5ad85ce3167de796ec3-p_e.jpg"
"695 Encino Vista Dr, Thousand Oaks, CA 91362","91362","Thousand Oaks","CA","1075000","3","3","1747","615.34","0.3049816345270891","acres","10/2/2024","1727852400000","https://zillow.com/homedetails/695-Encino-Vista-Dr-Thousand-Oaks-CA-91362/16476392_zpid/","34.187153","-118.85947","SINGLE_FAMILY","","4776","https://photos.zillowstatic.com/fp/88255fb4041cda8f450da0d33c343079-p_e.jpg"
"3983 Monterey Ct, Thousand Oaks, CA 91320","91320","Thousand Oaks","CA","930000","3","2","1348","689.91","6698","sqft","10/1/2024","1727766000000","https://zillow.com/homedetails/3983-Monterey-Ct-Thousand-Oaks-CA-91320/16412029_zpid/","34.17974","-118.95888","SINGLE_FAMILY","870600","3973","https://photos.zillowstatic.com/fp/1be579d73f089776dc13afc40acd4c1d-p_e.jpg"
"651 Glencliff Cir, Thousand Oaks, CA 91360","91360","Thousand Oaks","CA","999000","3","2","1796","556.24","9448","sqft","10/1/2024","1727766000000","https://zillow.com/homedetails/651-Glencliff-Cir-Thousand-Oaks-CA-91360/16429385_zpid/","34.222878","-118.89304","SINGLE_FAMILY","","4504","https://photos.zillowstatic.com/fp/c7856ed2da90943c09cc5bd1de88f6c0-p_e.jpg"
"1776 Bates Ct, Thousand Oaks, CA 91362","91362","Thousand Oaks","CA","1119000","4","3","2162","517.58","10281","sqft","10/1/2024","1727766000000","https://zillow.com/homedetails/1776-Bates-Ct-Thousand-Oaks-CA-91362/16482875_zpid/","34.191048","-118.84484","SINGLE_FAMILY","","5703","https://photos.zillowstatic.com/fp/f88af8f64056aa8315ba2a4fa90b9b13-p_e.jpg"
"3317 Sunset Hills Blvd, Thousand Oaks, CA 91362","91362","Thousand Oaks","CA","2100000","5","5","4100","512.2","8131","sqft","10/1/2024","1727766000000","https://zillow.com/homedetails/3317-Sunset-Hills-Blvd-Thousand-Oaks-CA-91362/52466204_zpid/","34.224995","-118.8155","SINGLE_FAMILY","2138400","7800","https://photos.zillowstatic.com/fp/4cc6555181867d2be9866f2a170a8af7-p_e.jpg"
"3812 San Marcos Ct, Thousand Oaks, CA 91320","91320","Thousand Oaks","CA","900000","4","2","1406","640.11","5100","sqft","9/30/2024","1727679600000","https://zillow.com/homedetails/3812-San-Marcos-Ct-Thousand-Oaks-CA-91320/16411656_zpid/","34.179916","-118.9562","SINGLE_FAMILY","894300","3986","https://photos.zillowstatic.com/fp/925768f06d77d6baf94ebe7a4d90d6f3-p_e.jpg"
"3970 Calle Mira Monte, Newbury Park, CA 91320","91320","Newbury Park","CA","1185000","4","3","2200","538.64","8315","sqft","9/30/2024","1727679600000","https://zillow.com/homedetails/3970-Calle-Mira-Monte-Newbury-Park-CA-91320/16412052_zpid/","34.189598","-118.96031","SINGLE_FAMILY","1183800","5184","https://photos.zillowstatic.com/fp/1da3466609cffe8d858bf23914e97ce1-p_e.jpg"
"3123 Foxtail Ct, Thousand Oaks, CA 91362","91362","Thousand Oaks","CA","1080000","3","3","1806","598.01","1806","sqft","9/30/2024","1727679600000","https://zillow.com/homedetails/3123-Foxtail-Ct-Thousand-Oaks-CA-91362/16430330_zpid/","34.21904","-118.818","SINGLE_FAMILY","1110300","4446","https://photos.zillowstatic.com/fp/ca16ad00c8008e25400a94c354408c9e-p_e.jpg"
"3117 Woodgreen Ct, Thousand Oaks, CA 91362","91362","Thousand Oaks","CA","1475000","4","3","2568","574.38","7508","sqft","9/30/2024","1727679600000","https://zillow.com/homedetails/3117-Woodgreen-Ct-Thousand-Oaks-CA-91362/16433244_zpid/","34.22208","-118.831535","SINGLE_FAMILY","1454700","6020","https://photos.zillowstatic.com/fp/8fddd6c57604139ba71a22b4958dde42-p_e.jpg"
"3506 Quarzo Cir, Thousand Oaks, CA 91362","91362","Thousand Oaks","CA","1550000","4","3","2750","563.64","0.4473829201101928","acres","9/30/2024","1727679600000","https://zillow.com/homedetails/3506-Quarzo-Cir-Thousand-Oaks-CA-91362/16436531_zpid/","34.22631","-118.8415","SINGLE_FAMILY","1503500","6542","https://photos.zillowstatic.com/fp/575847bd13fb005b6fc77189b95b9417-p_e.jpg"
"2810 Rainfield Ave, Westlake Village, CA 91362","91362","Westlake Village","CA","2480000","4","5","4007","618.92","0.3998852157943067","acres","9/30/2024","1727679600000","https://zillow.com/homedetails/2810-Rainfield-Ave-Westlake-Village-CA-91362/52465613_zpid/","34.20689","-118.82552","SINGLE_FAMILY","2532300","10263","https://photos.zillowstatic.com/fp/f56dfc43a82272c786f4d2331c9189b4-p_e.jpg"
"2644 N Velarde Dr, Thousand Oaks, CA 91360","91360","Thousand Oaks","CA","1070000","4","2","1797","595.44","0.25488980716253445","acres","9/27/2024","1727420400000","https://zillow.com/homedetails/2644-N-Velarde-Dr-Thousand-Oaks-CA-91360/16422998_zpid/","34.215748","-118.89854","SINGLE_FAMILY","1085200","4761","https://photos.zillowstatic.com/fp/a7013e8c096985ab436ee963f4804cf5-p_e.jpg"
"476 Azalea St, Thousand Oaks, CA 91360","91360","Thousand Oaks","CA","1110000","4","2","1639","677.24","8122","sqft","9/27/2024","1727420400000","https://zillow.com/homedetails/476-Azalea-St-Thousand-Oaks-CA-91360/16429162_zpid/","34.218864","-118.89011","SINGLE_FAMILY","1110100","4357","https://photos.zillowstatic.com/fp/1a13c91881e75e728b7fa1f5c050bfe3-p_e.jpg"
"2162 Shady Brook Dr, Thousand Oaks, CA 91362","91362","Thousand Oaks","CA","750000","3","3","1600","468.75","5376","sqft","9/27/2024","1727420400000","https://zillow.com/homedetails/2162-Shady-Brook-Dr-Thousand-Oaks-CA-91362/16430843_zpid/","34.21366","-118.8416","SINGLE_FAMILY","750100","4197","https://photos.zillowstatic.com/fp/a92d63529c63dbef3174c4dbd763109f-p_e.jpg"
"2870 Shelterwood Ct, Thousand Oaks, CA 91362","91362","Thousand Oaks","CA","850000","3","2","1693","502.07","8387","sqft","9/27/2024","1727420400000","https://zillow.com/homedetails/2870-Shelterwood-Ct-Thousand-Oaks-CA-91362/16431596_zpid/","34.217484","-118.84836","SINGLE_FAMILY","850100","4519","https://photos.zillowstatic.com/fp/1ecff5aa9769761cd98f20e08f1efddb-p_e.jpg"
"208 Deerwalk Pl, Thousand Oaks, CA 91320","91320","Thousand Oaks","CA","4800","4","2.5","2300","2.09","10704","sqft","9/27/2024","1727420400000","https://zillow.com/homedetails/208-Deerwalk-Pl-Thousand-Oaks-CA-91320/16470415_zpid/","34.18153","-118.93051","SINGLE_FAMILY","863800","4835","https://maps.googleapis.com/maps/api/staticmap?mobile=false&sensor=true&maptype=satellite&size=575x242&zoom=17&center=34.1815299987793,-118.93051147460938&key=AIzaSyBJsNQO5ZeG-XAbqqWLKwG08fWITSxg33w&signature=g1UP7u-onKjx5j4xtaQS9qUkAtg="
"1184 Waverly Heights Dr, Thousand Oaks, CA 91360","91360","Thousand Oaks","CA","1125000","3","2","1744","645.07","0.47695133149678604","acres","9/27/2024","1727420400000","https://zillow.com/homedetails/1184-Waverly-Heights-Dr-Thousand-Oaks-CA-91360/16481526_zpid/","34.203594","-118.85918","SINGLE_FAMILY","1125100","4563","https://photos.zillowstatic.com/fp/64ed24fcedb74bb3bb23391867fbbbdd-p_e.jpg"
"1848 Marview Dr, Thousand Oaks, CA 91362","91362","Thousand Oaks","CA","1500000","5","3","2590","579.15","7879","sqft","9/27/2024","1727420400000","https://zillow.com/homedetails/1848-Marview-Dr-Thousand-Oaks-CA-91362/16483021_zpid/","34.201717","-118.8424","SINGLE_FAMILY","1500200","6009","https://photos.zillowstatic.com/fp/54100b6cfdc5492b64cfcea2bbe79309-p_e.jpg"
"3236 N Sawtooth Ct, Thousand Oaks, CA 91362","91362","Thousand Oaks","CA","1345000","5","3","2637","510.05","7196.112","sqft","9/27/2024","1727420400000","https://zillow.com/homedetails/3236-N-Sawtooth-Ct-Thousand-Oaks-CA-91362/16484068_zpid/","34.170937","-118.83209","SINGLE_FAMILY","1345100","7432","https://photos.zillowstatic.com/fp/77af37c045f055672eb36de7b4e724b7-p_e.jpg"
"723 Via Sedona, Thousand Oaks, CA 91320","91320","Thousand Oaks","CA","2800000","5","6","4846","577.8","0.4195592286501377","acres","9/27/2024","1727420400000","https://zillow.com/homedetails/723-Via-Sedona-Thousand-Oaks-CA-91320/63031183_zpid/","34.1646","-118.99565","SINGLE_FAMILY","2800400","10702","https://photos.zillowstatic.com/fp/b5d7f0e15637cef391b4982a35d0c5b1-p_e.jpg"
"395 Sundance St, Thousand Oaks, CA 91360","91360","Thousand Oaks","CA","1025000","3","2","1569","653.28","9273","sqft","9/26/2024","1727334000000","https://zillow.com/homedetails/395-Sundance-St-Thousand-Oaks-CA-91360/16428904_zpid/","34.223892","-118.88724","SINGLE_FAMILY","1025200","4076","https://photos.zillowstatic.com/fp/ef38154e097b05dd6c184bf23070d4a0-p_e.jpg"
"2466 Dillon Ct, Thousand Oaks, CA 91360","91360","Thousand Oaks","CA","980000","3","2","1281","765.03","10775","sqft","9/26/2024","1727334000000","https://zillow.com/homedetails/2466-Dillon-Ct-Thousand-Oaks-CA-91360/16429539_zpid/","34.21249","-118.88755","SINGLE_FAMILY","980200","3967","https://photos.zillowstatic.com/fp/bcab7414ca8048752bc9f168753888ed-p_e.jpg"
"1159 Burtonwood Ave, Thousand Oaks, CA 91360","91360","Thousand Oaks","CA","1050000","3","3","1722","609.76","10455","sqft","9/26/2024","1727334000000","https://zillow.com/homedetails/1159-Burtonwood-Ave-Thousand-Oaks-CA-91360/16481804_zpid/","34.193874","-118.86459","SINGLE_FAMILY","1050200","4459","https://photos.zillowstatic.com/fp/a60fba9fd4e7ddb1292257611d29af97-p_e.jpg"
"997 Brook Meadow Ct, Westlake Village, CA 91362","91362","Westlake Village","CA","10500000","6","13","14997","700.14","4.16","acres","9/26/2024","1727334000000","https://zillow.com/homedetails/997-Brook-Meadow-Ct-Westlake-Village-CA-91362/16484293_zpid/","34.17999","-118.80891","SINGLE_FAMILY","10501700","8691","https://photos.zillowstatic.com/fp/616c67a0eb0c12371dbf174dce208903-p_e.jpg"
"434 W Avenida De Las Flores, Thousand Oaks, CA 91360","91360","Thousand Oaks","CA","899000","4","2","1566","574.07","8576","sqft","9/25/2024","1727247600000","https://zillow.com/homedetails/434-W-Avenida-De-Las-Flores-Thousand-Oaks-CA-91360/16429555_zpid/","34.211494","-118.8876","SINGLE_FAMILY","899200","3878","https://photos.zillowstatic.com/fp/8e81886f273e368d68daf127dbd14c74-p_e.jpg"
"2021 Simsbury Ct, Thousand Oaks, CA 91360","91360","Thousand Oaks","CA","1220000","3","2","1845","661.25","0.2604224058769513","acres","9/25/2024","1727247600000","https://zillow.com/homedetails/2021-Simsbury-Ct-Thousand-Oaks-CA-91360/16429644_zpid/","34.20565","-118.89536","SINGLE_FAMILY","1220100","4796","https://photos.zillowstatic.com/fp/11b844288dc7e7ce61bb9e000d58a57b-p_e.jpg"
"2186 Aspenpark Ct, Thousand Oaks, CA 91362","91362","Thousand Oaks","CA","980000","3","2","1323","740.74","6362","sqft","9/25/2024","1727247600000","https://zillow.com/homedetails/2186-Aspenpark-Ct-Thousand-Oaks-CA-91362/16430023_zpid/","34.209743","-118.83428","SINGLE_FAMILY","983600","4081","https://photos.zillowstatic.com/fp/7505add7b92084dbaa26c4005a32892a-p_e.jpg"
"5344 Long Shadow Ct, Westlake Village, CA 91362","91362","Westlake Village","CA","4350000","4","5","5623","773.61","0.32410468319559227","acres","9/25/2024","1727247600000","https://zillow.com/homedetails/5344-Long-Shadow-Ct-Westlake-Village-CA-91362/16487714_zpid/","34.190334","-118.79665","SINGLE_FAMILY","4350200","18069","https://photos.zillowstatic.com/fp/cc5e3eed907e1152d45843eda575dbf5-p_e.jpg"
"1065 Via Adorna, Thousand Oaks, CA 91320","91320","Thousand Oaks","CA","2190000","4","3","3230","678.02","0.434366391184573","acres","9/24/2024","1727161200000","https://zillow.com/homedetails/1065-Via-Adorna-Thousand-Oaks-CA-91320/16412295_zpid/","34.157543","-118.97322","SINGLE_FAMILY","2190200","6435","https://photos.zillowstatic.com/fp/401bfcc3980095c57adfa6289857cdde-p_e.jpg"
"1849 Seabreeze St, Thousand Oaks, CA 91320","91320","Thousand Oaks","CA","1450000","4","4","3133","462.82","6360","sqft","9/24/2024","1727161200000","https://zillow.com/homedetails/1849-Seabreeze-St-Thousand-Oaks-CA-91320/52468860_zpid/","34.201355","-118.91841","SINGLE_FAMILY","1450500","5593","https://photos.zillowstatic.com/fp/e7372f5e57f349fd7a37afaabdc71021-p_e.jpg"
"93 Via La Cima, Thousand Oaks, CA 91320","91320","Thousand Oaks","CA","1875000","5","5","4124","454.66","0.45713957759412305","acres","9/23/2024","1727074800000","https://zillow.com/homedetails/93-Via-La-Cima-Thousand-Oaks-CA-91320/16412996_zpid/","34.18032","-118.9837","SINGLE_FAMILY","1875200","7742","https://photos.zillowstatic.com/fp/1777a6a613fb54e260b20fb22a2d056e-p_e.jpg"
"745 S Kenmore Cir, Thousand Oaks, CA 91320","91320","Thousand Oaks","CA","1070000","4","4","2043","523.74","10369","sqft","9/23/2024","1727074800000","https://zillow.com/homedetails/745-S-Kenmore-Cir-Thousand-Oaks-CA-91320/16469451_zpid/","34.16558","-118.95004","SINGLE_FAMILY","1070100","4713","https://photos.zillowstatic.com/fp/31b857e1e813246c32a94f3226f2ec76-p_e.jpg"
"610 Orangewood Ave, Thousand Oaks, CA 91320","91320","Thousand Oaks","CA","799000","2","1","816","979.17","7100","sqft","9/23/2024","1727074800000","https://zillow.com/homedetails/610-Orangewood-Ave-Thousand-Oaks-CA-91320/16469663_zpid/","34.16672","-118.94194","SINGLE_FAMILY","798900","3065","https://photos.zillowstatic.com/fp/8a5bc7de90c8fedad9a6bad23911d68e-p_e.jpg"
"1854 Woodside Dr, Thousand Oaks, CA 91362","91362","Thousand Oaks","CA","1135000","4","3","2187","518.98","7411","sqft","9/20/2024","1726815600000","https://zillow.com/homedetails/1854-Woodside-Dr-Thousand-Oaks-CA-91362/16431246_zpid/","34.217384","-118.84486","SINGLE_FAMILY","1134700","4841","https://photos.zillowstatic.com/fp/41bf20f8b60c1fc7dc7879ea0fd69873-p_e.jpg"
"2512 Kensington Ave, Thousand Oaks, CA 91362","91362","Thousand Oaks","CA","1050000","4","3","3014","348.37","10397","sqft","9/20/2024","1726815600000","https://zillow.com/homedetails/2512-Kensington-Ave-Thousand-Oaks-CA-91362/16432812_zpid/","34.212883","-118.83135","SINGLE_FAMILY","1050100","6727","https://photos.zillowstatic.com/fp/68e7ddee32976b01a144e2d4d96dd5ea-p_e.jpg"
"1523 Calle Artigas, Thousand Oaks, CA 91360","91360","Thousand Oaks","CA","1060000","4","3","1962","540.27","9600","sqft","9/20/2024","1726815600000","https://zillow.com/homedetails/1523-Calle-Artigas-Thousand-Oaks-CA-91360/16435797_zpid/","34.23941","-118.85043","SINGLE_FAMILY","1060100","5155","https://photos.zillowstatic.com/fp/43e7565d3f072bbbf2a3b431f14f93ac-p_e.jpg"
"876 Calle Margarita, Thousand Oaks, CA 91360","91360","Thousand Oaks","CA","765000","3","1","979","781.41","10000","sqft","9/20/2024","1726815600000","https://zillow.com/homedetails/876-Calle-Margarita-Thousand-Oaks-CA-91360/16480992_zpid/","34.209084","-118.863556","SINGLE_FAMILY","","3486","https://photos.zillowstatic.com/fp/6440ccc697b21613bc0eeff9373d8e3d-p_e.jpg"
"2081 El Monte Dr, Thousand Oaks, CA 91362","91362","Thousand Oaks","CA","1625000","5","4","3379","480.91","0.326010101010101","acres","9/20/2024","1726815600000","https://zillow.com/homedetails/2081-El-Monte-Dr-Thousand-Oaks-CA-91362/16482384_zpid/","34.204163","-118.841606","SINGLE_FAMILY","1625100","7769","https://photos.zillowstatic.com/fp/6df1715f2bc767368eb7fba8ae152a95-p_e.jpg"
"3254 N Medicine Bow Ct, Westlake Village, CA 91362","91362","Westlake Village","CA","1476000","5","3","2637","559.73","7922","sqft","9/20/2024","1726815600000","https://zillow.com/homedetails/3254-N-Medicine-Bow-Ct-Westlake-Village-CA-91362/16484183_zpid/","34.169277","-118.82883","SINGLE_FAMILY","1476100","7198","https://photos.zillowstatic.com/fp/1fbc937a4d7a4c48063a83f3808e82c5-p_e.jpg"
"1715 Misty Creek Rd, Thousand Oaks, CA 91362","91362","Thousand Oaks","CA","2900000","5","3","3330","870.87","0.49428374655647384","acres","9/20/2024","1726815600000","https://zillow.com/homedetails/1715-Misty-Creek-Rd-Thousand-Oaks-CA-91362/16488703_zpid/","34.19465","-118.79034","SINGLE_FAMILY","2900200","7744","https://photos.zillowstatic.com/fp/4be2a8729a85a2c47a978677a1ff5163-p_e.jpg"
"1364 Roselawn Ave, Thousand Oaks, CA 91362","91362","Thousand Oaks","CA","1100000","3","3","3140","350.32","0.5882690541781451","acres","9/19/2024","1726729200000","https://zillow.com/homedetails/1364-Roselawn-Ave-Thousand-Oaks-CA-91362/16483561_zpid/","34.195217","-118.8392","SINGLE_FAMILY","1099900","7082","https://photos.zillowstatic.com/fp/ff3c5665c3dab04189b314c71d3cbbaa-p_e.jpg"
"1709 E Calle Artigas, Thousand Oaks, CA 91360","91360","Thousand Oaks","CA","787250","3","2","1442","545.94","8000","sqft","9/18/2024","1726642800000","https://zillow.com/homedetails/1709-E-Calle-Artigas-Thousand-Oaks-CA-91360/16435711_zpid/","34.240177","-118.84619","SINGLE_FAMILY","787100","4101","https://photos.zillowstatic.com/fp/a9fdd3f129a43ce28b7d30a96a2eed3b-p_e.jpg"
"429 Encino Vista Dr, Thousand Oaks, CA 91362","91362","Thousand Oaks","CA","1880000","4","3","2545","738.7","0.640495867768595","acres","9/18/2024","1726642800000","https://zillow.com/homedetails/429-Encino-Vista-Dr-Thousand-Oaks-CA-91362/16476457_zpid/","34.184044","-118.85955","SINGLE_FAMILY","1879600","6452","https://photos.zillowstatic.com/fp/ece09d849089f9c89ed8c40c8bbe0c5d-p_e.jpg"
"3576 Erinlea Ave, Thousand Oaks, CA 91320","91320","Thousand Oaks","CA","1150000","3","3","1699","676.87","8193","sqft","9/17/2024","1726556400000","https://zillow.com/homedetails/3576-Erinlea-Ave-Thousand-Oaks-CA-91320/16469123_zpid/","34.156563","-118.950874","SINGLE_FAMILY","1150100","4126","https://photos.zillowstatic.com/fp/2ce4eb28ef7dd1ac1d394ab4d0d12d02-p_e.jpg"
"873 Tamlei Ave, Thousand Oaks, CA 91362","91362","Thousand Oaks","CA","1525000","4","3","2492","611.96","0.459366391184573","acres","9/17/2024","1726556400000","https://zillow.com/homedetails/873-Tamlei-Ave-Thousand-Oaks-CA-91362/16482726_zpid/","34.189648","-118.85031","SINGLE_FAMILY","1525100","6830","https://photos.zillowstatic.com/fp/96c593a54760fc3b1df496e04de561fd-p_e.jpg"
"415 Arcturus St, Thousand Oaks, CA 91360","91360","Thousand Oaks","CA","1020000","4","2","1914","532.92","10700","sqft","9/16/2024","1726470000000","https://zillow.com/homedetails/415-Arcturus-St-Thousand-Oaks-CA-91360/16423834_zpid/","34.21608","-118.86943","SINGLE_FAMILY","1020100","4992","https://photos.zillowstatic.com/fp/4d305bd5a1530a62454214981268aa05-p_e.jpg"
"186 W Sidlee St, Thousand Oaks, CA 91360","91360","Thousand Oaks","CA","1550000","4","3","2655","583.8","0.35241046831955924","acres","9/16/2024","1726470000000","https://zillow.com/homedetails/186-W-Sidlee-St-Thousand-Oaks-CA-91360/16425380_zpid/","34.208767","-118.881546","SINGLE_FAMILY","1550100","6530","https://photos.zillowstatic.com/fp/1fc11cd7afb2f054c76cd5c1b82f7262-p_e.jpg"
"2052 Kirtland Cir, Thousand Oaks, CA 91360","91360","Thousand Oaks","CA","1400000","4","3","2604","537.63","10600","sqft","9/16/2024","1726470000000","https://zillow.com/homedetails/2052-Kirtland-Cir-Thousand-Oaks-CA-91360/16429634_zpid/","34.206078","-118.89371","SINGLE_FAMILY","1391400","5928","https://photos.zillowstatic.com/fp/c0c04ce61ba6f6bad674259faf401f58-p_e.jpg"
"2772 Autumn Ridge Dr, Thousand Oaks, CA 91362","91362","Thousand Oaks","CA","2295000","5","5","3500","655.71","0.3991505968778696","acres","9/16/2024","1726470000000","https://zillow.com/homedetails/2772-Autumn-Ridge-Dr-Thousand-Oaks-CA-91362/16430259_zpid/","34.216995","-118.81499","SINGLE_FAMILY","2295200","8142","https://photos.zillowstatic.com/fp/014c810eae4fe1e8a8904fc7b0a5b7d1-p_e.jpg"
"2485 Whitechapel Pl, Thousand Oaks, CA 91362","91362","Thousand Oaks","CA","1300000","4","3","2568","506.23","8505","sqft","9/16/2024","1726470000000","https://zillow.com/homedetails/2485-Whitechapel-Pl-Thousand-Oaks-CA-91362/16433188_zpid/","34.22015","-118.83199","SINGLE_FAMILY","1300100","5479","https://photos.zillowstatic.com/fp/4c227202c8e06ade7841b158d862152e-p_e.jpg"
"3943 Via Verde, Thousand Oaks, CA 91360","91360","Thousand Oaks","CA","1499000","4","3","2273","659.48","10471.824","sqft","9/16/2024","1726470000000","https://zillow.com/homedetails/3943-Via-Verde-Thousand-Oaks-CA-91360/16436383_zpid/","34.233505","-118.85103","SINGLE_FAMILY","1498300","5146","https://photos.zillowstatic.com/fp/d7968d20c0759a70d861c746f8b54ead-p_e.jpg"
"2391 Yew Dr, Thousand Oaks, CA 91320","91320","Thousand Oaks","CA","755000","3","2","1525","495.08","6098","sqft","9/16/2024","1726470000000","https://zillow.com/homedetails/2391-Yew-Dr-Thousand-Oaks-CA-91320/16467863_zpid/","34.180443","-118.9288","SINGLE_FAMILY","897400","4311","https://maps.googleapis.com/maps/api/staticmap?mobile=false&sensor=true&maptype=satellite&size=575x242&zoom=17&center=34.180442810058594,-118.92880249023438&key=AIzaSyBJsNQO5ZeG-XAbqqWLKwG08fWITSxg33w&signature=XGaWJKNJViNTykDzp6I5RK-867I="
"2908 Blazing Star Dr, Thousand Oaks, CA 91362","91362","Thousand Oaks","CA","1265000","4","3","2625","481.9","2625","sqft","9/16/2024","1726470000000","https://zillow.com/homedetails/2908-Blazing-Star-Dr-Thousand-Oaks-CA-91362/52465688_zpid/","34.217567","-118.823","SINGLE_FAMILY","1279300","5539","https://photos.zillowstatic.com/fp/8aa8f648e93a000e281a0dbd3978f5fc-p_e.jpg"
"1335 Norman Ave, Thousand Oaks, CA 91360","91360","Thousand Oaks","CA","900000","5","3","2182","412.47","9500","sqft","9/13/2024","1726210800000","https://zillow.com/homedetails/1335-Norman-Ave-Thousand-Oaks-CA-91360/16425469_zpid/","34.19641","-118.87263","SINGLE_FAMILY","1183200","6056","https://photos.zillowstatic.com/fp/69e05944e3eff1f83e0bf4d54ea10dae-p_e.jpg"
"1689 N Marian Ave, Thousand Oaks, CA 91360","91360","Thousand Oaks","CA","1260000","5","4","2557","492.76","0.4588154269972452","acres","9/13/2024","1726210800000","https://zillow.com/homedetails/1689-N-Marian-Ave-Thousand-Oaks-CA-91360/16471337_zpid/","34.2013","-118.892105","SINGLE_FAMILY","1260100","7991","https://photos.zillowstatic.com/fp/9920c6d3061dced08e4ad4899863e39f-p_e.jpg"
"1130 Coventry Dr, Thousand Oaks, CA 91360","91360","Thousand Oaks","CA","1177500","4","3","2265","519.87","10600","sqft","9/13/2024","1726210800000","https://zillow.com/homedetails/1130-Coventry-Dr-Thousand-Oaks-CA-91360/69037352_zpid/","34.19233","-118.86855","SINGLE_FAMILY","1177500","5823","https://photos.zillowstatic.com/fp/c8d9577e3a74677d66ed85a58dd7149e-p_e.jpg"
"4579 Via Del Rancho, Thousand Oaks, CA 91320","91320","Thousand Oaks","CA","1485025","4","4","3178","467.28","7461","sqft","9/12/2024","1726124400000","https://zillow.com/homedetails/4579-Via-Del-Rancho-Thousand-Oaks-CA-91320/16412549_zpid/","34.164803","-118.97309","SINGLE_FAMILY","1485100","6759","https://photos.zillowstatic.com/fp/6f1b87bca966090f07b915618ef839b9-p_e.jpg"
"461 Via De La Luz, Thousand Oaks, CA 91320","91320","Thousand Oaks","CA","1485000","4","3","2313","642.02","10631","sqft","9/12/2024","1726124400000","https://zillow.com/homedetails/461-Via-De-La-Luz-Thousand-Oaks-CA-91320/54899374_zpid/","34.17087","-118.97951","SINGLE_FAMILY","1485100","5347","https://photos.zillowstatic.com/fp/aaf2d6de58d99fa6b4255b1b26316a3e-p_e.jpg"
"1888 Burning Tree Dr, Thousand Oaks, CA 91362","91362","Thousand Oaks","CA","850000","3","2","1080","787.04","4631","sqft","9/11/2024","1726038000000","https://zillow.com/homedetails/1888-Burning-Tree-Dr-Thousand-Oaks-CA-91362/16431044_zpid/","34.213005","-118.844","SINGLE_FAMILY","850100","3620","https://photos.zillowstatic.com/fp/a2d352bcf61d63636f155a1e294e803e-p_e.jpg"
"4 N Northam Ave, Thousand Oaks, CA 91320","91320","Thousand Oaks","CA","820000","3","2","1736","472.35","0.2865013774104683","acres","9/11/2024","1726038000000","https://zillow.com/homedetails/4-N-Northam-Ave-Thousand-Oaks-CA-91320/16467695_zpid/","34.17746","-118.92573","SINGLE_FAMILY","820100","4283","https://photos.zillowstatic.com/fp/e86ed43f8daed155cd5150655fcca8b6-p_e.jpg"
"2791 Michael Dr, Thousand Oaks, CA 91320","91320","Thousand Oaks","CA","1225000","4","3","1946","629.5","8019","sqft","9/11/2024","1726038000000","https://zillow.com/homedetails/2791-Michael-Dr-Thousand-Oaks-CA-91320/16470246_zpid/","34.183334","-118.93539","SINGLE_FAMILY","","4471","https://photos.zillowstatic.com/fp/0d574bdc5df49b8a0907938c4d780bd5-p_e.jpg"
"3836 Sunset Knolls Dr, Thousand Oaks, CA 91362","91362","Thousand Oaks","CA","1190681","4","3","2603","457.43","7802","sqft","9/10/2024","1725951600000","https://zillow.com/homedetails/3836-Sunset-Knolls-Dr-Thousand-Oaks-CA-91362/16436773_zpid/","34.231182","-118.84299","SINGLE_FAMILY","1190900","5909","https://photos.zillowstatic.com/fp/109ef0321a599fc0c58748a7478ec9e0-p_e.jpg"
"3457 Gloria Dr, Thousand Oaks, CA 91320","91320","Thousand Oaks","CA","765000","3","2","1716","445.8","7900","sqft","9/10/2024","1725951600000","https://zillow.com/homedetails/3457-Gloria-Dr-Thousand-Oaks-CA-91320/16474706_zpid/","34.190414","-118.949036","SINGLE_FAMILY","765100","3697","https://photos.zillowstatic.com/fp/d2941d15dbc3b5700160b9c45cca8ea8-p_e.jpg"
"3271 Frankie Dr, Thousand Oaks, CA 91320","91320","Thousand Oaks","CA","685000","3","2","1241","551.97","7840","sqft","9/10/2024","1725951600000","https://zillow.com/homedetails/3271-Frankie-Dr-Thousand-Oaks-CA-91320/16474733_zpid/","34.190407","-118.94553","SINGLE_FAMILY","686400","3552","https://maps.googleapis.com/maps/api/staticmap?mobile=false&sensor=true&maptype=satellite&size=575x242&zoom=17&center=34.190406799316406,-118.9455337524414&key=AIzaSyBJsNQO5ZeG-XAbqqWLKwG08fWITSxg33w&signature=ctAhyduMpRvr40u-euhn6wQaVZc="
"2724 Calle Olivo, Thousand Oaks, CA 91360","91360","Thousand Oaks","CA","755000","3","2","1306","578.1","10800","sqft","9/10/2024","1725951600000","https://zillow.com/homedetails/2724-Calle-Olivo-Thousand-Oaks-CA-91360/16479952_zpid/","34.217148","-118.85432","SINGLE_FAMILY","755100","4095","https://photos.zillowstatic.com/fp/5053c3194398b6c484c17c56b07ac9c2-p_e.jpg"
"5741 Stone Mountain Ln, Westlake Village, CA 91362","91362","Westlake Village","CA","2198000","4","3","2790","787.81","0.2788","acres","9/10/2024","1725951600000","https://zillow.com/homedetails/5741-Stone-Mountain-Ln-Westlake-Village-CA-91362/16488680_zpid/","34.195118","-118.78823","SINGLE_FAMILY","2198400","6728","https://photos.zillowstatic.com/fp/843a9c98c4e5bbb6e812e2b6008a5512-p_e.jpg"
"1144 Deepwood Dr, Thousand Oaks, CA 91362","91362","Thousand Oaks","CA","2913000","6","6","4349","669.81","0.48999081726354454","acres","9/10/2024","1725951600000","https://zillow.com/homedetails/1144-Deepwood-Dr-Thousand-Oaks-CA-91362/16489208_zpid/","34.18379","-118.81928","SINGLE_FAMILY","2913500","10978","https://photos.zillowstatic.com/fp/8caec2a54427fe3469ea71e49999c89d-p_e.jpg"
"1557 Fairmount Rd, Thousand Oaks, CA 91362","91362","Thousand Oaks","CA","2705000","4","4","3893","694.84","0.4637052341597796","acres","9/10/2024","1725951600000","https://zillow.com/homedetails/1557-Fairmount-Rd-Thousand-Oaks-CA-91362/16489414_zpid/","34.192158","-118.81571","SINGLE_FAMILY","2705400","11861","https://photos.zillowstatic.com/fp/8466cf3c9128256663d4f2be4e36db7c-p_e.jpg"
"236 Canyon Rd, Thousand Oaks, CA 91320","91320","Thousand Oaks","CA","1015000","4","3","2570","394.94","0.257","acres","9/9/2024","1725865200000","https://zillow.com/homedetails/236-Canyon-Rd-Thousand-Oaks-CA-91320/16478200_zpid/","34.1738","-118.91037","SINGLE_FAMILY","1015200","5197","https://photos.zillowstatic.com/fp/900e9c316f5877dcc207ea42527d0892-p_e.jpg"
"1021 Calle Nogal, Thousand Oaks, CA 91360","91360","Thousand Oaks","CA","920000","4","2","2400","383.33","10000","sqft","9/9/2024","1725865200000","https://zillow.com/homedetails/1021-Calle-Nogal-Thousand-Oaks-CA-91360/16480251_zpid/","34.213795","-118.86155","SINGLE_FAMILY","919900","5248","https://photos.zillowstatic.com/fp/df4d9e35c4fcb6dd702bebd297c61e78-p_e.jpg"
"2032 Birchdale Ct, Thousand Oaks, CA 91362","91362","Thousand Oaks","CA","394500","3","3","1536","256.84","","","9/6/2024","1725606000000","https://zillow.com/homedetails/2032-Birchdale-Ct-Thousand-Oaks-CA-91362/16431968_zpid/","34.208187","-118.8414","SINGLE_FAMILY","669800","3642","https://photos.zillowstatic.com/fp/84aa6955fa0522ade41a78240d058437-p_e.jpg"
"353 Lynn Oaks Ct, Thousand Oaks, CA 91320","91320","Thousand Oaks","CA","1480000","4","3","2154","687.09","0.41","acres","9/6/2024","1725606000000","https://zillow.com/homedetails/353-Lynn-Oaks-Ct-Thousand-Oaks-CA-91320/16485176_zpid/","34.17377","-118.89727","SINGLE_FAMILY","1479500","5591","https://photos.zillowstatic.com/fp/86ad452a42824af44a5f83acae3da67a-p_e.jpg"
"4231 Via Azul, Thousand Oaks, CA 91320","91320","Thousand Oaks","CA","1500000","5","4","2873","522.1","9758","sqft","9/6/2024","1725606000000","https://zillow.com/homedetails/4231-Via-Azul-Thousand-Oaks-CA-91320/52465464_zpid/","34.171616","-118.96508","SINGLE_FAMILY","1500100","5648","https://photos.zillowstatic.com/fp/86c5546db183e02587d3f4fe98d9a6d9-p_e.jpg"
"2796 Heavenly Ridge St, Thousand Oaks, CA 91362","91362","Thousand Oaks","CA","1489600","4","4","3348","444.92","8618","sqft","9/6/2024","1725606000000","https://zillow.com/homedetails/2796-Heavenly-Ridge-St-Thousand-Oaks-CA-91362/52466110_zpid/","34.22238","-118.82547","SINGLE_FAMILY","1489700","7055","https://photos.zillowstatic.com/fp/3a1d03cc4dd8c1f5ac2856940ea19803-p_e.jpg"
"890 Vinton Ct, Thousand Oaks, CA 91360","91360","Thousand Oaks","CA","849000","4","3","1824","465.46","5560","sqft","9/5/2024","1725519600000","https://zillow.com/homedetails/890-Vinton-Ct-Thousand-Oaks-CA-91360/16476086_zpid/","34.183044","-118.862724","SINGLE_FAMILY","849100","4528","https://photos.zillowstatic.com/fp/28dcd2c249b6b673720fd7c9d1c247fc-p_e.jpg"
"1432 Valley High Ave, Thousand Oaks, CA 91362","91362","Thousand Oaks","CA","1299000","4","4","2911","446.24","0.3591368227731864","acres","9/5/2024","1725519600000","https://zillow.com/homedetails/1432-Valley-High-Ave-Thousand-Oaks-CA-91362/16483010_zpid/","34.19745","-118.84327","SINGLE_FAMILY","1299100","6731","https://photos.zillowstatic.com/fp/e409c1a9410aefb6cb115095a91e85c8-p_e.jpg"
"3329 S Blue Ridge Ct, Thousand Oaks, CA 91362","91362","Thousand Oaks","CA","1510000","5","3","2637","572.62","8113","sqft","9/5/2024","1725519600000","https://zillow.com/homedetails/3329-S-Blue-Ridge-Ct-Thousand-Oaks-CA-91362/16484215_zpid/","34.16718","-118.829956","SINGLE_FAMILY","1510200","7202","https://photos.zillowstatic.com/fp/01c05db76c54ae00ab177a49fc03a119-p_e.jpg"
"4277 Cresthaven Dr, Westlake Village, CA 91362","91362","Westlake Village","CA","3350000","5","5","4935","678.82","2.0309458218549126","acres","9/5/2024","1725519600000","https://zillow.com/homedetails/4277-Cresthaven-Dr-Westlake-Village-CA-91362/16489555_zpid/","34.18642","-118.816795","SINGLE_FAMILY","3356400","13112","https://maps.googleapis.com/maps/api/staticmap?mobile=false&sensor=true&maptype=satellite&size=575x242&zoom=17&center=34.18642044067383,-118.8167953491211&key=AIzaSyBJsNQO5ZeG-XAbqqWLKwG08fWITSxg33w&signature=H_kiY3-S6ycUSwbvvxhSb4wOgfA="
"4657 Calle Norte, Thousand Oaks, CA 91320","91320","Thousand Oaks","CA","1025000","2","2","1920","533.85","5004","sqft","9/4/2024","1725433200000","https://zillow.com/homedetails/4657-Calle-Norte-Thousand-Oaks-CA-91320/16412829_zpid/","34.172386","-118.97473","SINGLE_FAMILY","","4012","https://photos.zillowstatic.com/fp/041225058bac5a41dc9df0d82ae82481-p_e.jpg"
"364 W Avenue De Los Arboles, Thousand Oaks, CA 91360","91360","Thousand Oaks","CA","950000","4","2","1841","516.02","8712","sqft","9/4/2024","1725433200000","https://zillow.com/homedetails/364-W-Avenue-De-Los-Arboles-Thousand-Oaks-CA-91360/16423768_zpid/","34.21424","-118.88043","SINGLE_FAMILY","950600","4376","https://photos.zillowstatic.com/fp/c63e0970f8bc9afd36ffc1854b779fa9-p_e.jpg"
"908 Sagebrush Pl, Thousand Oaks, CA 91320","91320","Thousand Oaks","CA","1200000","4","3","2494","481.15","9025.632","sqft","9/4/2024","1725433200000","https://zillow.com/homedetails/908-Sagebrush-Pl-Thousand-Oaks-CA-91320/16469959_zpid/","34.1614","-118.94647","SINGLE_FAMILY","1200200","5108","https://photos.zillowstatic.com/fp/ef0495e7d9bad10055d34f3b5688abe3-p_e.jpg"
"2162 Montgomery Rd, Thousand Oaks, CA 91360","91360","Thousand Oaks","CA","1050000","3","2","1786","587.91","0.29494949494949496","acres","9/4/2024","1725433200000","https://zillow.com/homedetails/2162-Montgomery-Rd-Thousand-Oaks-CA-91360/16480952_zpid/","34.20735","-118.86122","SINGLE_FAMILY","1057900","4411","https://photos.zillowstatic.com/fp/b9aa4ed9c0a77d287e09553245f7d09c-p_e.jpg"
"4946 Read Rd, Moorpark, CA 93021","93021","Moorpark","CA","600000","","","","","4.85","acres","9/4/2024","1725433200000","https://zillow.com/homedetails/4946-Read-Rd-Moorpark-CA-93021/96102897_zpid/","34.248417","-118.854","SINGLE_FAMILY","","4937","https://maps.googleapis.com/maps/api/staticmap?mobile=false&sensor=true&maptype=satellite&size=575x242&zoom=17&center=34.248416900634766,-118.85399627685547&key=AIzaSyBJsNQO5ZeG-XAbqqWLKwG08fWITSxg33w&signature=aVlVxqvn0JCq00OcAsBmz8ewi50="
"364 W Avenida De Los Arboles, Thousand Oaks, CA 91360","91360","Thousand Oaks","CA","950000","4","2","1841","516.02","8686","sqft","9/4/2024","1725433200000","https://zillow.com/homedetails/364-W-Avenida-De-Los-Arboles-Thousand-Oaks-CA-91360/2069750145_zpid/","34.21695","-118.88562","SINGLE_FAMILY","950100","4385","https://photos.zillowstatic.com/fp/0fbe2f204eddd20f6b04d3446571cd24-p_e.jpg"
"4787 Windhaven Dr, Thousand Oaks, CA 91362","91362","Thousand Oaks","CA","11971800","6","13","16702","716.79","4.77","acres","9/3/2024","1725346800000","https://zillow.com/homedetails/4787-Windhaven-Dr-Thousand-Oaks-CA-91362/72653264_zpid/","34.175213","-118.80676","SINGLE_FAMILY","11972100","8371","https://photos.zillowstatic.com/fp/78145b79f482cef74c142d1ec8646eab-p_e.jpg"
"3649 Calle Quebracho, Thousand Oaks, CA 91360","91360","Thousand Oaks","CA","950000","3","2","1186","801.01","0.4430670339761249","acres","9/2/2024","1725260400000","https://zillow.com/homedetails/3649-Calle-Quebracho-Thousand-Oaks-CA-91360/16478991_zpid/","34.227924","-118.86507","SINGLE_FAMILY","979700","3701","https://photos.zillowstatic.com/fp/f6d57d46db9a86f367e88b4811507d46-p_e.jpg"
"4048 N Verde Vista Dr, Thousand Oaks, CA 91360","91360","Thousand Oaks","CA","875000","3","2","1561","560.54","9376","sqft","8/30/2024","1725001200000","https://zillow.com/homedetails/4048-N-Verde-Vista-Dr-Thousand-Oaks-CA-91360/16422303_zpid/","34.233643","-118.87463","SINGLE_FAMILY","875000","4353","https://photos.zillowstatic.com/fp/d40d6cffc161fa19927a9a68783fa08c-p_e.jpg"
"2222 Park Pl, Thousand Oaks, CA 91362","91362","Thousand Oaks","CA","1490000","3","3","1838","810.66","9836","sqft","8/30/2024","1725001200000","https://zillow.com/homedetails/2222-Park-Pl-Thousand-Oaks-CA-91362/16429930_zpid/","34.21075","-118.83631","SINGLE_FAMILY","1491300","4689","https://photos.zillowstatic.com/fp/82396703e97582d9efc5cfd6f3d0e7fe-p_e.jpg"
"45 Sandra Ct, Thousand Oaks, CA 91320","91320","Thousand Oaks","CA","887500","3","2","1389","638.95","7040","sqft","8/30/2024","1725001200000","https://zillow.com/homedetails/45-Sandra-Ct-Thousand-Oaks-CA-91320/16472866_zpid/","34.178642","-118.94665","SINGLE_FAMILY","887600","3791","https://photos.zillowstatic.com/fp/70588f6adb78dfeb58427e1dc457549d-p_e.jpg"
"855 E Avenida De Los Arboles, Thousand Oaks, CA 91360","91360","Thousand Oaks","CA","829000","4","2","1534","540.42","0.2777777777777778","acres","8/30/2024","1725001200000","https://zillow.com/homedetails/855-E-Avenida-De-Los-Arboles-Thousand-Oaks-CA-91360/16480265_zpid/","34.21621","-118.86263","SINGLE_FAMILY","827000","4748","https://photos.zillowstatic.com/fp/08b03aa5bbeb57aee2b1b81b6470d302-p_e.jpg"
"1352 Morrow Cir, Thousand Oaks, CA 91362","91362","Thousand Oaks","CA","970000","3","3","2604","372.5","0.33512396694214874","acres","8/30/2024","1725001200000","https://zillow.com/homedetails/1352-Morrow-Cir-Thousand-Oaks-CA-91362/16483144_zpid/","34.19684","-118.84144","SINGLE_FAMILY","979400","6009","https://photos.zillowstatic.com/fp/970654142282c7d308f0f520b3304f9e-p_e.jpg"
"1449 Doral Cir, Thousand Oaks, CA 91362","91362","Thousand Oaks","CA","2900000","4","6","4256","681.39","0.55","acres","8/30/2024","1725001200000","https://zillow.com/homedetails/1449-Doral-Cir-Thousand-Oaks-CA-91362/16489645_zpid/","34.190685","-118.80472","SINGLE_FAMILY","2900300","12081","https://photos.zillowstatic.com/fp/951ea2dfd2f7f97f74495e7b2a3eb545-p_e.jpg"
"549 Meadowrun St, Thousand Oaks, CA 91360","91360","Thousand Oaks","CA","1275000","4","3","2763","461.45","0.5148071625344353","acres","8/29/2024","1724914800000","https://zillow.com/homedetails/549-Meadowrun-St-Thousand-Oaks-CA-91360/16422746_zpid/","34.234703","-118.86789","SINGLE_FAMILY","1275100","6597","https://photos.zillowstatic.com/fp/e5cc41becca8b428686c5c314e782265-p_e.jpg"
"725 W San Andres Cir, Thousand Oaks, CA 91360","91360","Thousand Oaks","CA","985000","3","2","1529","644.21","8572","sqft","8/29/2024","1724914800000","https://zillow.com/homedetails/725-W-San-Andres-Cir-Thousand-Oaks-CA-91360/16422987_zpid/","34.214897","-118.89601","SINGLE_FAMILY","985100","4550","https://photos.zillowstatic.com/fp/923d5f47f14dee6f471aa7bfda3bc84f-p_e.jpg"
"944 Eaglesnest Pl, Thousand Oaks, CA 91320","91320","Thousand Oaks","CA","1225000","4","2","2180","561.93","9397","sqft","8/29/2024","1724914800000","https://zillow.com/homedetails/944-Eaglesnest-Pl-Thousand-Oaks-CA-91320/16470005_zpid/","34.160133","-118.9506","SINGLE_FAMILY","1225100","4868","https://photos.zillowstatic.com/fp/143c9bcfc0aa67abbacdee15a8a2442e-p_e.jpg"
"175 Via Mirabella, Thousand Oaks, CA 91320","91320","Thousand Oaks","CA","1822000","5","5","3543","514.25","9986","sqft","8/29/2024","1724914800000","https://zillow.com/homedetails/175-Via-Mirabella-Thousand-Oaks-CA-91320/59693103_zpid/","34.17571","-118.97395","SINGLE_FAMILY","1822200","6852","https://photos.zillowstatic.com/fp/e4324b820f7a960f8967811181e66d7b-p_e.jpg"
"362 Camino Manzanas, Thousand Oaks, CA 91360","91360","Thousand Oaks","CA","932000","5","2","2085","447","0.29614325068870523","acres","8/29/2024","1724914800000","https://zillow.com/homedetails/362-Camino-Manzanas-Thousand-Oaks-CA-91360/300035586_zpid/","34.198","-118.88622","SINGLE_FAMILY","","5157","https://photos.zillowstatic.com/fp/e77fa042ba37191e6f7fce5d62024510-p_e.jpg"
"27 W Gainsborough Rd, Thousand Oaks, CA 91360","91360","Thousand Oaks","CA","920000","5","2","2085","441.25","9000","sqft","8/28/2024","1724828400000","https://zillow.com/homedetails/27-W-Gainsborough-Rd-Thousand-Oaks-CA-91360/16425670_zpid/","34.19621","-118.876305","SINGLE_FAMILY","920200","5466","https://photos.zillowstatic.com/fp/2e940effab1ae2b1fc38041fd9e147d0-p_e.jpg"
"2565 Picadilly Cir, Thousand Oaks, CA 91362","91362","Thousand Oaks","CA","1620000","5","3","3014","537.49","9666","sqft","8/28/2024","1724828400000","https://zillow.com/homedetails/2565-Picadilly-Cir-Thousand-Oaks-CA-91362/16432967_zpid/","34.218143","-118.830826","SINGLE_FAMILY","1620300","7028","https://photos.zillowstatic.com/fp/8b20316226126e27443f5bdfbb9f258d-p_e.jpg"
"457 S Ventu Park Rd, Thousand Oaks, CA 91320","91320","Thousand Oaks","CA","1023000","3","2.5","2067","494.92","3484","sqft","8/28/2024","1724828400000","https://zillow.com/homedetails/457-S-Ventu-Park-Rd-Thousand-Oaks-CA-91320/16478340_zpid/","34.170532","-118.90585","SINGLE_FAMILY","1024000","4250","https://photos.zillowstatic.com/fp/5e68ce8a71fe2afb81e1166d2517ee1f-p_e.jpg"
"1723 La Granada Dr, Thousand Oaks, CA 91362","91362","Thousand Oaks","CA","1635000","5","3","2524","647.78","0.5171946740128558","acres","8/28/2024","1724828400000","https://zillow.com/homedetails/1723-La-Granada-Dr-Thousand-Oaks-CA-91362/16482811_zpid/","34.19344","-118.84763","SINGLE_FAMILY","1635300","6454","https://photos.zillowstatic.com/fp/8487478c29d4efe08b60eb672a68bf36-p_e.jpg"
"3355 S Blue Ridge Ct, Westlake Village, CA 91362","91362","Westlake Village","CA","1270000","4","3","2611","486.4","7265","sqft","8/28/2024","1724828400000","https://zillow.com/homedetails/3355-S-Blue-Ridge-Ct-Westlake-Village-CA-91362/16484220_zpid/","34.166653","-118.828926","SINGLE_FAMILY","1270200","6752","https://photos.zillowstatic.com/fp/0faf8a0cb6b621dd949085829a3e76e1-p_e.jpg"
"868 Cayo Grande Ct, Thousand Oaks, CA 91320","91320","Thousand Oaks","CA","1100000","4","3","2200","500","7296","sqft","8/27/2024","1724742000000","https://zillow.com/homedetails/868-Cayo-Grande-Ct-Thousand-Oaks-CA-91320/16411933_zpid/","34.191307","-118.9582","SINGLE_FAMILY","1100200","4772","https://photos.zillowstatic.com/fp/61d7e340e5f4e4199cc91eabd2423ddd-p_e.jpg"
"1769 Blossom Ct, Thousand Oaks, CA 91320","91320","Thousand Oaks","CA","1358000","4","3","3133","433.45","6061","sqft","8/27/2024","1724742000000","https://zillow.com/homedetails/1769-Blossom-Ct-Thousand-Oaks-CA-91320/16473975_zpid/","34.194542","-118.91678","SINGLE_FAMILY","1359300","5413","https://photos.zillowstatic.com/fp/125b3fc6f904e5b1a0d85751c694c7ec-p_e.jpg"
"2923 Camino Del Zuro, Thousand Oaks, CA 91360","91360","Thousand Oaks","CA","977000","3","2","1303","749.81","0.2538337924701561","acres","8/27/2024","1724742000000","https://zillow.com/homedetails/2923-Camino-Del-Zuro-Thousand-Oaks-CA-91360/16478805_zpid/","34.219963","-118.86494","SINGLE_FAMILY","977200","4263","https://photos.zillowstatic.com/fp/3955b0a2dacba0d871de509022219739-p_e.jpg"
"2341 Hood Dr, Thousand Oaks, CA 91362","91362","Thousand Oaks","CA","1600000","4","3","2592","617.28","0.3925619834710744","acres","8/27/2024","1724742000000","https://zillow.com/homedetails/2341-Hood-Dr-Thousand-Oaks-CA-91362/16483230_zpid/","34.18933","-118.838646","SINGLE_FAMILY","1600300","6305","https://photos.zillowstatic.com/fp/1096efaf3afb8b977323a654af5a4b3e-p_e.jpg"
"2479 Chaucer Pl, Thousand Oaks, CA 91362","91362","Thousand Oaks","CA","1575000","4","3","2673","589.23","9411","sqft","8/26/2024","1724655600000","https://zillow.com/homedetails/2479-Chaucer-Pl-Thousand-Oaks-CA-91362/23725611_zpid/","34.21329","-118.83287","SINGLE_FAMILY","1576900","6259","https://photos.zillowstatic.com/fp/06711294eb58c583649eec4a88d093b4-p_e.jpg"
"3922 Greenwood St, Thousand Oaks, CA 91320","91320","Thousand Oaks","CA","839000","3","2","1351","621.02","7673","sqft","8/25/2024","1724569200000","https://zillow.com/homedetails/3922-Greenwood-St-Thousand-Oaks-CA-91320/16472247_zpid/","34.1598","-118.95776","SINGLE_FAMILY","840100","3757","https://photos.zillowstatic.com/fp/c6b05b2b4d4f85ba72c1bcc89cc39096-p_e.jpg"
"2506 N Ciro Ave, Thousand Oaks, CA 91360","91360","Thousand Oaks","CA","1320000","5","3","2694","489.98","0.2548209366391185","acres","8/23/2024","1724396400000","https://zillow.com/homedetails/2506-N-Ciro-Ave-Thousand-Oaks-CA-91360/16425305_zpid/","34.212814","-118.8859","SINGLE_FAMILY","1321700","6177","https://photos.zillowstatic.com/fp/757d88e095ddb8aceb60c2bf764e865e-p_e.jpg"
"2686 Dorado Ct, Thousand Oaks, CA 91362","91362","Thousand Oaks","CA","1250000","3","3","2109","592.7","4280","sqft","8/23/2024","1724396400000","https://zillow.com/homedetails/2686-Dorado-Ct-Thousand-Oaks-CA-91362/16430495_zpid/","34.21543","-118.82033","SINGLE_FAMILY","1251600","4917","https://photos.zillowstatic.com/fp/d1e89a1fe44d122387051d3855b9a21b-p_e.jpg"
"728 Malat Dr, Thousand Oaks, CA 91320","91320","Thousand Oaks","CA","990000","3","2","1308","756.88","8056","sqft","8/23/2024","1724396400000","https://zillow.com/homedetails/728-Malat-Dr-Thousand-Oaks-CA-91320/16474799_zpid/","34.188587","-118.94772","SINGLE_FAMILY","991300","3466","https://photos.zillowstatic.com/fp/428470fcf49cb199ca466144a10d923a-p_e.jpg"
"1737 Wellesley Dr, Thousand Oaks, CA 91360","91360","Thousand Oaks","CA","1166000","4","3","1696","687.5","0.3202479338842975","acres","8/22/2024","1724310000000","https://zillow.com/homedetails/1737-Wellesley-Dr-Thousand-Oaks-CA-91360/16481382_zpid/","34.20079","-118.866035","SINGLE_FAMILY","1167500","4844","https://photos.zillowstatic.com/fp/1a2fbb81dd9fb0fa713b7f06630748a4-p_e.jpg"
"1485 Sappanwood Ave, Thousand Oaks, CA 91320","91320","Thousand Oaks","CA","1255000","3","3","2136","587.55","5644","sqft","8/20/2024","1724137200000","https://zillow.com/homedetails/1485-Sappanwood-Ave-Thousand-Oaks-CA-91320/16474502_zpid/","34.19927","-118.919815","SINGLE_FAMILY","1256700","4584","https://photos.zillowstatic.com/fp/93200deab0945521c7a01131dc4ddf6c-p_e.jpg"
"1212 Uppingham Dr, Thousand Oaks, CA 91360","91360","Thousand Oaks","CA","1000000","4","2","1656","603.86","8500","sqft","8/20/2024","1724137200000","https://zillow.com/homedetails/1212-Uppingham-Dr-Thousand-Oaks-CA-91360/16479013_zpid/","34.223286","-118.85852","SINGLE_FAMILY","1001300","4932","https://photos.zillowstatic.com/fp/d6af91502029e1256ce61258a9cb9a7f-p_e.jpg"
"832 Pamela Wood St, Thousand Oaks, CA 91320","91320","Thousand Oaks","CA","1025000","4","3","2067","495.89","0.2601239669421488","acres","8/20/2024","1724137200000","https://zillow.com/homedetails/832-Pamela-Wood-St-Thousand-Oaks-CA-91320/16485513_zpid/","34.177547","-118.899895","SINGLE_FAMILY","1026400","4466","https://photos.zillowstatic.com/fp/7c993051f637526d9977e23b4a72a93d-p_e.jpg"
"2517 Renata Ct, Thousand Oaks, CA 91362","91362","Thousand Oaks","CA","1275000","4","3","2259","564.41","7415","sqft","8/19/2024","1724050800000","https://zillow.com/homedetails/2517-Renata-Ct-Thousand-Oaks-CA-91362/16430598_zpid/","34.2129","-118.82272","SINGLE_FAMILY","1276700","5979","https://photos.zillowstatic.com/fp/289d7f47dd0f9e05c50ade0acd5f4972-p_e.jpg"
"1188 E Calle Contento, Thousand Oaks, CA 91360","91360","Thousand Oaks","CA","1105000","4","2","2152","513.48","0.2796372819100092","acres","8/19/2024","1724050800000","https://zillow.com/homedetails/1188-E-Calle-Contento-Thousand-Oaks-CA-91360/16436035_zpid/","34.23406","-118.85859","SINGLE_FAMILY","1106500","4962","https://photos.zillowstatic.com/fp/dd0ab53422e4144135f0d4bb6de0eb72-p_e.jpg"
"2180 Speck Ln, Thousand Oaks, CA 91320","91320","Thousand Oaks","CA","1210000","3","3","3384","357.57","1","acres","8/19/2024","1724050800000","https://zillow.com/homedetails/2180-Speck-Ln-Thousand-Oaks-CA-91320/16467502_zpid/","34.172436","-118.924904","SINGLE_FAMILY","1641700","6088","https://maps.googleapis.com/maps/api/staticmap?mobile=false&sensor=true&maptype=satellite&size=575x242&zoom=17&center=34.17243576049805,-118.9249038696289&key=AIzaSyBJsNQO5ZeG-XAbqqWLKwG08fWITSxg33w&signature=SfLIXvoCHzvzVV-vpK3FBngukXM="
"279 Maple Rd, Thousand Oaks, CA 91320","91320","Thousand Oaks","CA","850000","3","2","1505","564.78","6000","sqft","8/19/2024","1724050800000","https://zillow.com/homedetails/279-Maple-Rd-Thousand-Oaks-CA-91320/16478172_zpid/","34.173084","-118.90841","SINGLE_FAMILY","851200","4023","https://photos.zillowstatic.com/fp/8ae582343b19ef86fa60b167a44d6eda-p_e.jpg"
"2360 Solway Ct, Thousand Oaks, CA 91362","91362","Thousand Oaks","CA","1250000","4","3","2394","522.14","5707","sqft","8/16/2024","1723791600000","https://zillow.com/homedetails/2360-Solway-Ct-Thousand-Oaks-CA-91362/16433173_zpid/","34.21914","-118.83482","SINGLE_FAMILY","1251800","5078","https://photos.zillowstatic.com/fp/afe2e5cc6282c87b1f2f8be791e12117-p_e.jpg"
"955 Emerson St, Thousand Oaks, CA 91362","91362","Thousand Oaks","CA","1475000","3","2","1776","830.52","0.27299999999999996","acres","8/16/2024","1723791600000","https://zillow.com/homedetails/955-Emerson-St-Thousand-Oaks-CA-91362/16483280_zpid/","34.189888","-118.84316","SINGLE_FAMILY","1477100","4959","https://photos.zillowstatic.com/fp/e25b404a3f2ce65324c40ca4d1acc73d-p_e.jpg"
"3015 E Sierra Dr, Thousand Oaks, CA 91362","91362","Thousand Oaks","CA","1250000","3","2","2087","598.95","7400","sqft","8/16/2024","1723791600000","https://zillow.com/homedetails/3015-E-Sierra-Dr-Thousand-Oaks-CA-91362/16483844_zpid/","34.169025","-118.82267","SINGLE_FAMILY","1251800","4709","https://photos.zillowstatic.com/fp/7b93404bffb79d826d6711a23ed5ef63-p_e.jpg"
"3064 Ferncrest Pl, Thousand Oaks, CA 91362","91362","Thousand Oaks","CA","1210000","4","3","2902","416.95","2902","sqft","8/16/2024","1723791600000","https://zillow.com/homedetails/3064-Ferncrest-Pl-Thousand-Oaks-CA-91362/52465552_zpid/","34.218018","-118.81984","SINGLE_FAMILY","1211700","5590","https://photos.zillowstatic.com/fp/06fffa264ea820542dd4f384292ea3b6-p_e.jpg"
"4501 Via Rio, Thousand Oaks, CA 91320","91320","Thousand Oaks","CA","5800","4","2.5","2666","2.18","9147","sqft","8/16/2024","1723791600000","https://zillow.com/homedetails/4501-Via-Rio-Thousand-Oaks-CA-91320/54899300_zpid/","34.172638","-118.97032","SINGLE_FAMILY","1435600","5513","https://photos.zillowstatic.com/fp/2f6e18aaa63b5160a30f297c66496fb3-p_e.jpg"
"4409 Camino De Las Estrellas, Thousand Oaks, CA 91320","91320","Thousand Oaks","CA","1295000","5","3","2615","495.22","6780","sqft","8/15/2024","1723705200000","https://zillow.com/homedetails/4409-Camino-De-Las-Estrellas-Thousand-Oaks-CA-91320/16412772_zpid/","34.16792","-118.96927","SINGLE_FAMILY","1296900","6076","https://photos.zillowstatic.com/fp/1bb087d309a58b753daee9f2044db444-p_e.jpg"
"3049 N Westridge Cir, Thousand Oaks, CA 91360","91360","Thousand Oaks","CA","1255000","5","3","2062","608.63","0.2857897153351699","acres","8/15/2024","1723705200000","https://zillow.com/homedetails/3049-N-Westridge-Cir-Thousand-Oaks-CA-91360/16428508_zpid/","34.221024","-118.89764","SINGLE_FAMILY","1201300","6153","https://photos.zillowstatic.com/fp/03cde417e8019618c45e52423258e876-p_e.jpg"
"878 Calle Yucca, Thousand Oaks, CA 91360","91360","Thousand Oaks","CA","1265000","5","3","2621","482.64","0.5785123966942148","acres","8/15/2024","1723705200000","https://zillow.com/homedetails/878-Calle-Yucca-Thousand-Oaks-CA-91360/16470681_zpid/","34.19297","-118.896065","SINGLE_FAMILY","1266000","5028","https://photos.zillowstatic.com/fp/014e686c43fefbd96cb42d28a7f9a507-p_e.jpg"
"2637 Dorado Ct, Thousand Oaks, CA 91362","91362","Thousand Oaks","CA","1099000","4","3","2109","521.1","3218","sqft","8/14/2024","1723618800000","https://zillow.com/homedetails/2637-Dorado-Ct-Thousand-Oaks-CA-91362/16430483_zpid/","34.214844","-118.82113","SINGLE_FAMILY","1100600","4826","https://photos.zillowstatic.com/fp/5d6985363f65af2a2e56dffb4c278d6f-p_e.jpg"
"3241 Peppermint St, Thousand Oaks, CA 91320","91320","Thousand Oaks","CA","920000","3","2","1756","523.92","9630","sqft","8/14/2024","1723618800000","https://zillow.com/homedetails/3241-Peppermint-St-Thousand-Oaks-CA-91320/16473693_zpid/","34.16972","-118.94485","SINGLE_FAMILY","921400","4362","https://photos.zillowstatic.com/fp/90dad0f83367070bccc4ccb8c3b563a1-p_e.jpg"
"254 Arcturus St, Thousand Oaks, CA 91360","91360","Thousand Oaks","CA","1210000","4","3","2350","514.89","0.4701561065197429","acres","8/13/2024","1723532400000","https://zillow.com/homedetails/254-Arcturus-St-Thousand-Oaks-CA-91360/16423535_zpid/","34.21515","-118.87224","SINGLE_FAMILY","1211800","5760","https://photos.zillowstatic.com/fp/753557b6053d4bcb8cc37e45040c63bd-p_e.jpg"
"108 E Gainsborough Rd, Thousand Oaks, CA 91360","91360","Thousand Oaks","CA","860000","3","2","1791","480.18","9200","sqft","8/13/2024","1723532400000","https://zillow.com/homedetails/108-E-Gainsborough-Rd-Thousand-Oaks-CA-91360/16425511_zpid/","34.195293","-118.87363","SINGLE_FAMILY","861300","3904","https://photos.zillowstatic.com/fp/1aa966d392fc5a6ca2c15371d68fc435-p_e.jpg"
"639 Doe Creek Cir, Thousand Oaks, CA 91320","91320","Thousand Oaks","CA","1400000","4","5","3404","411.28","0.55","acres","8/13/2024","1723532400000","https://zillow.com/homedetails/639-Doe-Creek-Cir-Thousand-Oaks-CA-91320/16472615_zpid/","34.166092","-118.96089","SINGLE_FAMILY","1402100","6429","https://photos.zillowstatic.com/fp/5eac2638831c3a8c4960267ba0c9b363-p_e.jpg"
"735 Benson Way, Thousand Oaks, CA 91360","91360","Thousand Oaks","CA","920000","4","3","2032","452.76","9605","sqft","8/13/2024","1723532400000","https://zillow.com/homedetails/735-Benson-Way-Thousand-Oaks-CA-91360/16475891_zpid/","34.18579","-118.864845","SINGLE_FAMILY","921400","4935","https://photos.zillowstatic.com/fp/fc79fc24da6c7886c42221c7f2153dde-p_e.jpg"
"5643 Hazelcrest Cir, Thousand Oaks, CA 91362","91362","Thousand Oaks","CA","1369000","3","2","2137","640.62","9071","sqft","8/13/2024","1723532400000","https://zillow.com/homedetails/5643-Hazelcrest-Cir-Thousand-Oaks-CA-91362/16488766_zpid/","34.175068","-118.79028","SINGLE_FAMILY","1365700","5379","https://photos.zillowstatic.com/fp/715076ca8fe82c608ace2996ffcb1fdc-p_e.jpg"
"5516 Grey Feather Ct, Thousand Oaks, CA 91362","91362","Thousand Oaks","CA","3310000","5","5","3400","973.53","0.6299816345270891","acres","8/12/2024","1723446000000","https://zillow.com/homedetails/5516-Grey-Feather-Ct-Thousand-Oaks-CA-91362/16488908_zpid/","34.195683","-118.79325","SINGLE_FAMILY","3315000","12331","https://photos.zillowstatic.com/fp/a060b45982e0d0bce792edd7fee4c14b-p_e.jpg"
"2954 Rob Ct, Thousand Oaks, CA 91362","91362","Thousand Oaks","CA","1275000","4","3","2097","608.01","7534","sqft","8/9/2024","1723186800000","https://zillow.com/homedetails/2954-Rob-Ct-Thousand-Oaks-CA-91362/16432197_zpid/","34.21919","-118.83897","SINGLE_FAMILY","1277000","5229","https://photos.zillowstatic.com/fp/73d8d2a6ffc4d3a348c299bb8d9ffd6a-p_e.jpg"
"1162 Calle Las Trancas, Thousand Oaks, CA 91360","91360","Thousand Oaks","CA","1110000","4","3","3215","345.26","0.9320477502295684","acres","8/9/2024","1723186800000","https://zillow.com/homedetails/1162-Calle-Las-Trancas-Thousand-Oaks-CA-91360/16471197_zpid/","34.198967","-118.90091","SINGLE_FAMILY","1230600","7649","https://photos.zillowstatic.com/fp/f16b81c298cf368a5b8813455ce3ff75-p_e.jpg"
"2985 Wauneta St, Thousand Oaks, CA 91320","91320","Thousand Oaks","CA","1130000","4","3","2327","485.6","7697","sqft","8/9/2024","1723186800000","https://zillow.com/homedetails/2985-Wauneta-St-Thousand-Oaks-CA-91320/16473835_zpid/","34.17371","-118.93942","SINGLE_FAMILY","1162800","4774","https://photos.zillowstatic.com/fp/78ef81710a3198aaabf83b73b3e862a7-p_e.jpg"
"3195 Royal Oaks Dr, Thousand Oaks, CA 91362","91362","Thousand Oaks","CA","2246160","9","9","5299","423.88","0.25068870523415976","acres","8/9/2024","1723186800000","https://zillow.com/homedetails/3195-Royal-Oaks-Dr-Thousand-Oaks-CA-91362/16477454_zpid/","34.166847","-118.83626","SINGLE_FAMILY","2249700","4448","https://photos.zillowstatic.com/fp/73e037787b2e9e47ae791a828727a3c2-p_e.jpg"
"1115 Via Hispano, Thousand Oaks, CA 91320","91320","Thousand Oaks","CA","2495000","4","4","3468","719.43","0.334435261707989","acres","8/9/2024","1723186800000","https://zillow.com/homedetails/1115-Via-Hispano-Thousand-Oaks-CA-91320/52465439_zpid/","34.156887","-118.98293","SINGLE_FAMILY","2499000","6953","https://photos.zillowstatic.com/fp/13642f62db00170afd0828ebba7fc9c0-p_e.jpg"
"4941 Via Andrea, Thousand Oaks, CA 91320","91320","Thousand Oaks","CA","2140000","5","3","3616","591.81","0.2866","acres","8/8/2024","1723100400000","https://zillow.com/homedetails/4941-Via-Andrea-Thousand-Oaks-CA-91320/16412359_zpid/","34.157627","-118.980446","SINGLE_FAMILY","2143400","6625","https://photos.zillowstatic.com/fp/4c2d323fabc7efe4f1bf340f34a92ba3-p_e.jpg"
"116 Cindy Ave, Thousand Oaks, CA 91320","91320","Thousand Oaks","CA","1139000","5","3","2498","455.96","8003","sqft","8/8/2024","1723100400000","https://zillow.com/homedetails/116-Cindy-Ave-Thousand-Oaks-CA-91320/16473401_zpid/","34.176712","-118.93999","SINGLE_FAMILY","1141800","5291","https://photos.zillowstatic.com/fp/8b2568518ce515cb991b1df702331380-p_e.jpg"
"4047 Maurice Dr, Thousand Oaks, CA 91320","91320","Thousand Oaks","CA","1565000","4","4","2860","547.2","8885","sqft","8/8/2024","1723100400000","https://zillow.com/homedetails/4047-Maurice-Dr-Thousand-Oaks-CA-91320/52468585_zpid/","34.167362","-118.961754","SINGLE_FAMILY","1567500","6088","https://photos.zillowstatic.com/fp/a1f770e7a2694613a2d5441154f95e09-p_e.jpg"
"2745 Rodney St, Thousand Oaks, CA 91320","91320","Thousand Oaks","CA","1010000","4","3","2061","490.05","9491.724","sqft","8/7/2024","1723014000000","https://zillow.com/homedetails/2745-Rodney-St-Thousand-Oaks-CA-91320/16470569_zpid/","34.18703","-118.93415","SINGLE_FAMILY","1011600","4626","https://photos.zillowstatic.com/fp/c4d3d012c53e958dc01ad5585be61ff7-p_e.jpg"
"770 Camino La Maida, Thousand Oaks, CA 91360","91360","Thousand Oaks","CA","950000","4","2","1303","729.09","10004","sqft","8/7/2024","1723014000000","https://zillow.com/homedetails/770-Camino-La-Maida-Thousand-Oaks-CA-91360/16478752_zpid/","34.219185","-118.86537","SINGLE_FAMILY","951600","4834","https://photos.zillowstatic.com/fp/bdcca6914e1edcd0a801313056732794-p_e.jpg"
"670 Via Carro, Thousand Oaks, CA 91320","91320","Thousand Oaks","CA","1780000","4","4","3178","560.1","9194","sqft","8/6/2024","1722927600000","https://zillow.com/homedetails/670-Via-Carro-Thousand-Oaks-CA-91320/16412512_zpid/","34.165623","-118.97548","SINGLE_FAMILY","1782900","7407","https://photos.zillowstatic.com/fp/8072d44b6f6cbbeedf4052ec8218a103-p_e.jpg"
"269 W Columbia Rd, Thousand Oaks, CA 91360","91360","Thousand Oaks","CA","900000","3","2","1526","589.78","9350","sqft","8/6/2024","1722927600000","https://zillow.com/homedetails/269-W-Columbia-Rd-Thousand-Oaks-CA-91360/16425071_zpid/","34.20353","-118.87122","SINGLE_FAMILY","901500","4318","https://photos.zillowstatic.com/fp/3fd6bff1e4fbd268ad46fac06e5244cc-p_e.jpg"
"2825 Regina Ave, Thousand Oaks, CA 91360","91360","Thousand Oaks","CA","1000000","3","2","1639","610.13","0.3084940312213039","acres","8/6/2024","1722927600000","https://zillow.com/homedetails/2825-Regina-Ave-Thousand-Oaks-CA-91360/16429272_zpid/","34.21785","-118.88651","SINGLE_FAMILY","1001700","4406","https://photos.zillowstatic.com/fp/5618d5dd0c456632e9e15486afba8be3-p_e.jpg"
"2922 Morningside Dr, Thousand Oaks, CA 91362","91362","Thousand Oaks","CA","890000","3","2","1360","654.41","7012","sqft","8/6/2024","1722927600000","https://zillow.com/homedetails/2922-Morningside-Dr-Thousand-Oaks-CA-91362/16431133_zpid/","34.217854","-118.842766","SINGLE_FAMILY","891500","3976","https://photos.zillowstatic.com/fp/64eec74c037f4b71ad998fc553995c31-p_e.jpg"
"499 Blackhawk Dr, Thousand Oaks, CA 91320","91320","Thousand Oaks","CA","979024","4","2","1989","492.22","7618.644","sqft","8/6/2024","1722927600000","https://zillow.com/homedetails/499-Blackhawk-Dr-Thousand-Oaks-CA-91320/16471979_zpid/","34.170498","-118.96054","SINGLE_FAMILY","981100","4602","https://photos.zillowstatic.com/fp/f2a017732cf7da04b1002aff809a5a8a-p_e.jpg"
"1833 Crystal View Cir, Thousand Oaks, CA 91320","91320","Thousand Oaks","CA","1731400","4","4","3256","531.76","0.3654269972451791","acres","8/6/2024","1722927600000","https://zillow.com/homedetails/1833-Crystal-View-Cir-Thousand-Oaks-CA-91320/16478449_zpid/","34.175137","-118.91925","SINGLE_FAMILY","1734400","6073","https://photos.zillowstatic.com/fp/dc483f53ca9b821852c345e57a3af32a-p_e.jpg"
"875 Camino La Maida, Thousand Oaks, CA 91360","91360","Thousand Oaks","CA","650000","3","2","1268","512.62","0.2699954086317723","acres","8/5/2024","1722841200000","https://zillow.com/homedetails/875-Camino-La-Maida-Thousand-Oaks-CA-91360/16478942_zpid/","34.21915","-118.86323","SINGLE_FAMILY","651100","4518","https://maps.googleapis.com/maps/api/staticmap?mobile=false&sensor=true&maptype=satellite&size=575x242&zoom=17&center=34.21915054321289,-118.86322784423828&key=AIzaSyBJsNQO5ZeG-XAbqqWLKwG08fWITSxg33w&signature=yoU35s5-Z8jWJuzYtU1Go8cTGrQ="
"564 Kenwood St, Thousand Oaks, CA 91320","91320","Thousand Oaks","CA","980000","3","2","1672","586.12","8965","sqft","8/5/2024","1722841200000","https://zillow.com/homedetails/564-Kenwood-St-Thousand-Oaks-CA-91320/16485395_zpid/","34.17732","-118.891235","SINGLE_FAMILY","981600","4129","https://photos.zillowstatic.com/fp/10a2faa1dcecebefa78746338b64b96c-p_e.jpg"
"888 Cayo Grande Ct, Thousand Oaks, CA 91320","91320","Thousand Oaks","CA","1160000","5","3","2967","390.97","7476","sqft","8/2/2024","1722582000000","https://zillow.com/homedetails/888-Cayo-Grande-Ct-Thousand-Oaks-CA-91320/16411928_zpid/","34.19175","-118.95894","SINGLE_FAMILY","1162000","5426","https://photos.zillowstatic.com/fp/b70ead901ff9c0b0defad529fadf026e-p_e.jpg"
"1651 Fox Springs Cir, Thousand Oaks, CA 91320","91320","Thousand Oaks","CA","1190000","4","3","2480","479.84","5395","sqft","8/2/2024","1722582000000","https://zillow.com/homedetails/1651-Fox-Springs-Cir-Thousand-Oaks-CA-91320/16474227_zpid/","34.19525","-118.91515","SINGLE_FAMILY","1192100","5163","https://photos.zillowstatic.com/fp/c6990fe24f0fee07edb9a67b02c8783c-p_e.jpg"
"3082 Camino Del Zuro, Thousand Oaks, CA 91360","91360","Thousand Oaks","CA","1005000","3","2","1784","563.34","10830","sqft","8/2/2024","1722582000000","https://zillow.com/homedetails/3082-Camino-Del-Zuro-Thousand-Oaks-CA-91360/16478838_zpid/","34.222366","-118.8616","SINGLE_FAMILY","1006800","4019","https://photos.zillowstatic.com/fp/c61255de3386c0408178d3bf2c26b335-p_e.jpg"
"884 Ruth Dr, Thousand Oaks, CA 91320","91320","Thousand Oaks","CA","777000","3","2","1233","630.17","7841","sqft","8/1/2024","1722495600000","https://zillow.com/homedetails/884-Ruth-Dr-Thousand-Oaks-CA-91320/16474760_zpid/","34.190056","-118.944855","SINGLE_FAMILY","778400","3802","https://photos.zillowstatic.com/fp/c10f0ab165d3058217a8a7ba070b471a-p_e.jpg"
"163 Flittner Cir, Thousand Oaks, CA 91360","91360","Thousand Oaks","CA","830000","3","2","1144","725.52","9300","acres","8/1/2024","1722495600000","https://zillow.com/homedetails/163-Flittner-Cir-Thousand-Oaks-CA-91360/16476011_zpid/","34.18063","-118.868","SINGLE_FAMILY","831500","3612","https://photos.zillowstatic.com/fp/bd9dacfee42fe3809d0a17b77c574989-p_e.jpg"
"675 Oak Shadow View Pl, Thousand Oaks, CA 91320","91320","Thousand Oaks","CA","1130000","3","2","2006","563.31","0.33135904499540864","acres","8/1/2024","1722495600000","https://zillow.com/homedetails/675-Oak-Shadow-View-Pl-Thousand-Oaks-CA-91320/16485812_zpid/","34.18359","-118.8949","SINGLE_FAMILY","1132000","4365","https://photos.zillowstatic.com/fp/9864fe6a89a93ad54f867f7ae13999a9-p_e.jpg"
"400 Via Cresta, Thousand Oaks, CA 91320","91320","Thousand Oaks","CA","1000000","4","3","2769","361.14","8712","sqft","8/1/2024","1722495600000","https://zillow.com/homedetails/400-Via-Cresta-Thousand-Oaks-CA-91320/54899287_zpid/","34.171825","-118.98051","SINGLE_FAMILY","1262800","5293","https://maps.googleapis.com/maps/api/staticmap?mobile=false&sensor=true&maptype=satellite&size=575x242&zoom=17&center=34.17182540893555,-118.98050689697266&key=AIzaSyBJsNQO5ZeG-XAbqqWLKwG08fWITSxg33w&signature=Bfnnd1Ig0Iq2PwgzA9Prn2pO9ZI="
"5340 Via Rincon, Thousand Oaks, CA 91320","91320","Thousand Oaks","CA","1900000","5","3","3394","559.81","10393","sqft","7/31/2024","1722409200000","https://zillow.com/homedetails/5340-Via-Rincon-Thousand-Oaks-CA-91320/16413220_zpid/","34.174114","-118.98837","SINGLE_FAMILY","1903400","5999","https://photos.zillowstatic.com/fp/3453d731264e67d4839a87431e9ddbab-p_e.jpg"
"2109 Young Ave, Thousand Oaks, CA 91360","91360","Thousand Oaks","CA","860000","3","2","1656","519.32","9100","sqft","7/31/2024","1722409200000","https://zillow.com/homedetails/2109-Young-Ave-Thousand-Oaks-CA-91360/16424765_zpid/","34.2093","-118.87948","SINGLE_FAMILY","","4448","https://photos.zillowstatic.com/fp/ce4896f05b57142d3c1177214d7c68c6-p_e.jpg"
"4273 Avenida Amelgado, Thousand Oaks, CA 91360","91360","Thousand Oaks","CA","1199000","4","3","2064","580.91","0.2571166207529844","acres","7/31/2024","1722409200000","https://zillow.com/homedetails/4273-Avenida-Amelgado-Thousand-Oaks-CA-91360/16435870_zpid/","34.23807","-118.85518","SINGLE_FAMILY","1201200","5326","https://photos.zillowstatic.com/fp/545862710897220704e64a1f562aecb5-p_e.jpg"
"19 Carob Dr, Thousand Oaks, CA 91320","91320","Thousand Oaks","CA","1000000","4","3","2090","478.47","5877","sqft","7/31/2024","1722409200000","https://zillow.com/homedetails/19-Carob-Dr-Thousand-Oaks-CA-91320/16467770_zpid/","34.178257","-118.929016","SINGLE_FAMILY","1001800","4654","https://photos.zillowstatic.com/fp/e633c2cba8b50c73ff47f778de8ffbd4-p_e.jpg"
"1842 N Calle Petaluma, Thousand Oaks, CA 91360","91360","Thousand Oaks","CA","1500000","4","3","2889","519.21","0.7756887052341598","acres","7/31/2024","1722409200000","https://zillow.com/homedetails/1842-N-Calle-Petaluma-Thousand-Oaks-CA-91360/16471296_zpid/","34.202713","-118.90487","SINGLE_FAMILY","1502700","6330","https://photos.zillowstatic.com/fp/c38ba2dc1759e7088e94b729b02584b0-p_e.jpg"
"4859 Windhaven Dr, Thousand Oaks, CA 91362","91362","Thousand Oaks","CA","5600000","5","6","6670","839.58","1.35","acres","7/31/2024","1722409200000","https://zillow.com/homedetails/4859-Windhaven-Dr-Thousand-Oaks-CA-91362/16484314_zpid/","34.174694","-118.80587","SINGLE_FAMILY","5610100","21663","https://photos.zillowstatic.com/fp/3d73a585571fa5a6827d33deae56a60d-p_e.jpg"
"3873 Coronado Cir, Thousand Oaks, CA 91320","91320","Thousand Oaks","CA","1100000","4","3","1935","568.48","6982","sqft","7/30/2024","1722322800000","https://zillow.com/homedetails/3873-Coronado-Cir-Thousand-Oaks-CA-91320/16411666_zpid/","34.179527","-118.95712","SINGLE_FAMILY","1102000","4482","https://photos.zillowstatic.com/fp/d89e194a33e5bc9b842c0a9a5a274700-p_e.jpg"
"3399 Crossland St, Thousand Oaks, CA 91362","91362","Thousand Oaks","CA","1520000","4","3","2983","509.55","7561","sqft","7/30/2024","1722322800000","https://zillow.com/homedetails/3399-Crossland-St-Thousand-Oaks-CA-91362/16430291_zpid/","34.2157","-118.81342","SINGLE_FAMILY","1522800","5936","https://photos.zillowstatic.com/fp/bf4f6a3500a9cad4d34d562a591424b6-p_e.jpg"
"1965 Daylight Ct, Thousand Oaks, CA 91362","91362","Thousand Oaks","CA","1750000","5","3","3079","568.37","9992","sqft","7/30/2024","1722322800000","https://zillow.com/homedetails/1965-Daylight-Ct-Thousand-Oaks-CA-91362/16436781_zpid/","34.230537","-118.84292","SINGLE_FAMILY","1753200","7094","https://photos.zillowstatic.com/fp/7819525ae308348ad7234daeb55577a2-p_e.jpg"
"1358 Calle Yucca, Thousand Oaks, CA 91360","91360","Thousand Oaks","CA","1400000","3","3","3238","432.37","0.5371900826446281","acres","7/30/2024","1722322800000","https://zillow.com/homedetails/1358-Calle-Yucca-Thousand-Oaks-CA-91360/16471108_zpid/","34.200264","-118.89866","SINGLE_FAMILY","1402600","7004","https://photos.zillowstatic.com/fp/9458747bfb1df887a2b9719e7ebe9144-p_e.jpg"
"3508 Bear Creek Ct, Thousand Oaks, CA 91320","91320","Thousand Oaks","CA","1325000","3","2","2084","635.8","0.35778236914600553","acres","7/30/2024","1722322800000","https://zillow.com/homedetails/3508-Bear-Creek-Ct-Thousand-Oaks-CA-91320/16473806_zpid/","34.17133","-118.95034","SINGLE_FAMILY","1285900","4412","https://photos.zillowstatic.com/fp/0253d48ca4e1a847cc1a173ebca0fb62-p_e.jpg"
"3958 Cresthaven Dr, Westlake Village, CA 91362","91362","Westlake Village","CA","2444062","5","4","4181","584.56","0.46999540863177225","acres","7/30/2024","1722322800000","https://zillow.com/homedetails/3958-Cresthaven-Dr-Westlake-Village-CA-91362/16489237_zpid/","34.181152","-118.82242","SINGLE_FAMILY","2449000","8911","https://photos.zillowstatic.com/fp/f7fcad0ec7da2798557cc69704ea0e8f-p_e.jpg"
"1695 Miller Ranch Dr, Thousand Oaks, CA 91362","91362","Thousand Oaks","CA","6500000","6","8","6245","1040.83","1.09","acres","7/30/2024","1722322800000","https://zillow.com/homedetails/1695-Miller-Ranch-Dr-Thousand-Oaks-CA-91362/337907876_zpid/","34.20037","-118.817406","SINGLE_FAMILY","6512000","8745","https://photos.zillowstatic.com/fp/1dbee2b4fed67301dadc3d4b4eb5c325-p_e.jpg"
"752 Cayo Grande Ct, Thousand Oaks, CA 91320","91320","Thousand Oaks","CA","929000","4","2","1599","580.99","5500","sqft","7/29/2024","1722236400000","https://zillow.com/homedetails/752-Cayo-Grande-Ct-Thousand-Oaks-CA-91320/16411816_zpid/","34.188343","-118.95474","SINGLE_FAMILY","","4071","https://photos.zillowstatic.com/fp/ebc3a04e163dade430fa77c4bedaedab-p_e.jpg"
"657 Via Linda, Thousand Oaks, CA 91320","91320","Thousand Oaks","CA","1710000","5","3","3161","540.97","10185","sqft","7/29/2024","1722236400000","https://zillow.com/homedetails/657-Via-Linda-Thousand-Oaks-CA-91320/16412962_zpid/","34.166126","-118.97599","SINGLE_FAMILY","1713200","7244","https://photos.zillowstatic.com/fp/94074e39f053e267739d7e5c5889c3d2-p_e.jpg"
"3238 Futura Point, Thousand Oaks, CA 91362","91362","Thousand Oaks","CA","1312000","4","3","2954","444.14","9038.7","sqft","7/29/2024","1722236400000","https://zillow.com/homedetails/3238-Futura-Point-Thousand-Oaks-CA-91362/16432400_zpid/","34.223206","-118.841576","SINGLE_FAMILY","1302800","6189","https://photos.zillowstatic.com/fp/535f622b0bb580f39ca349d9f6a3082b-p_e.jpg"
"898 Maplewood Ave, Thousand Oaks, CA 91320","91320","Thousand Oaks","CA","875000","3","2","1324","660.88","8296","sqft","7/29/2024","1722236400000","https://zillow.com/homedetails/898-Maplewood-Ave-Thousand-Oaks-CA-91320/16469791_zpid/","34.161495","-118.942566","SINGLE_FAMILY","876600","3972","https://photos.zillowstatic.com/fp/17497488ea146b02d0cb6fa1d414bb98-p_e.jpg"
"5607 S Rim St, Westlake Village, CA 91362","91362","Westlake Village","CA","2775000","5","5","4921","563.91","1.17","acres","7/29/2024","1722236400000","https://zillow.com/homedetails/5607-S-Rim-St-Westlake-Village-CA-91362/16487708_zpid/","34.18942","-118.79143","SINGLE_FAMILY","2780200","10746","https://photos.zillowstatic.com/fp/84cde0c7feaf8d75e26bcd23d8f4f028-p_e.jpg"
"5009 Via Santana, Thousand Oaks, CA 91320","91320","Thousand Oaks","CA","1675000","4","4","3735","448.46","0.2556","acres","7/26/2024","1721977200000","https://zillow.com/homedetails/5009-Via-Santana-Thousand-Oaks-CA-91320/16413023_zpid/","34.179474","-118.98147","SINGLE_FAMILY","1678300","6543","https://photos.zillowstatic.com/fp/36dc8956e9a00911f21a7793c600d8cf-p_e.jpg"
"810 Deer Willow Ct, Newbury Park, CA 91320","91320","Newbury Park","CA","1425000","5","3","3174","448.96","10299","sqft","7/26/2024","1721977200000","https://zillow.com/homedetails/810-Deer-Willow-Ct-Newbury-Park-CA-91320/16470238_zpid/","34.16249","-118.94388","SINGLE_FAMILY","1427800","5707","https://photos.zillowstatic.com/fp/f830bd69d2d0e8a47515ac4811685082-p_e.jpg"
"252 Dena Dr, Thousand Oaks, CA 91320","91320","Thousand Oaks","CA","970000","4","2","2071","468.37","7900","sqft","7/26/2024","1721977200000","https://zillow.com/homedetails/252-Dena-Dr-Thousand-Oaks-CA-91320/16475195_zpid/","34.18133","-118.94428","SINGLE_FAMILY","971900","4574","https://photos.zillowstatic.com/fp/c93e5ece9de06469e9ddfbf5f1977fe4-p_e.jpg"
"3060 Alice Dr, Thousand Oaks, CA 91320","91320","Thousand Oaks","CA","801000","3","2","2108","379.98","8000","sqft","7/26/2024","1721977200000","https://zillow.com/homedetails/3060-Alice-Dr-Thousand-Oaks-CA-91320/16475530_zpid/","34.18406","-118.94175","SINGLE_FAMILY","802600","4459","https://photos.zillowstatic.com/fp/dce4e4a3ab8a6dbc77ea984f2245eebb-p_e.jpg"
"1121 Calle Tulipan, Thousand Oaks, CA 91360","91360","Thousand Oaks","CA","277500","4","2","1280","216.8","10018","sqft","7/26/2024","1721977200000","https://zillow.com/homedetails/1121-Calle-Tulipan-Thousand-Oaks-CA-91360/16480550_zpid/","34.210793","-118.859726","SINGLE_FAMILY","866900","4216","https://photos.zillowstatic.com/fp/0dd5166af5e73159b0d3dcfb64aa5728-p_e.jpg"
"532 Havenside Ave, Thousand Oaks, CA 91320","91320","Thousand Oaks","CA","1300000","5","5","3163","411","8482","sqft","7/26/2024","1721977200000","https://zillow.com/homedetails/532-Havenside-Ave-Thousand-Oaks-CA-91320/52468656_zpid/","34.168846","-118.96017","SINGLE_FAMILY","1302600","5974","https://photos.zillowstatic.com/fp/540bd957572fd72244f50d3920307a0d-p_e.jpg"
"2823 Sandhurst Ave, Thousand Oaks, CA 91362","91362","Thousand Oaks","CA","1286000","4","2","1975","651.14","6534","sqft","7/25/2024","1721890800000","https://zillow.com/homedetails/2823-Sandhurst-Ave-Thousand-Oaks-CA-91362/16433077_zpid/","34.218143","-118.83527","SINGLE_FAMILY","1288600","4610","https://photos.zillowstatic.com/fp/aa3d845f6dfb1e42598a461b26b7eb5d-p_e.jpg"
"103 S Walter Ave, Thousand Oaks, CA 91320","91320","Thousand Oaks","CA","780000","4","2","1427","546.6","9257","sqft","7/25/2024","1721890800000","https://zillow.com/homedetails/103-S-Walter-Ave-Thousand-Oaks-CA-91320/16473203_zpid/","34.177204","-118.94542","SINGLE_FAMILY","781600","4053","https://photos.zillowstatic.com/fp/9a6458948033c68b2d32b8bc0285d888-p_e.jpg"
"125 Heavenly Valley Rd, Thousand Oaks, CA 91320","91320","Thousand Oaks","CA","1510000","4","5","4354","346.81","8250","sqft","7/25/2024","1721890800000","https://zillow.com/homedetails/125-Heavenly-Valley-Rd-Thousand-Oaks-CA-91320/16478075_zpid/","34.176487","-118.90396","SINGLE_FAMILY","1513000","6903","https://photos.zillowstatic.com/fp/87cf3aed0e8f72d4a85d4e14de3d0dbf-p_e.jpg"
"2755 Beckett Ct, Thousand Oaks, CA 91360","91360","Thousand Oaks","CA","1040000","3","2","1507","690.11","7940","sqft","7/24/2024","1721804400000","https://zillow.com/homedetails/2755-Beckett-Ct-Thousand-Oaks-CA-91360/16424326_zpid/","34.217056","-118.88104","SINGLE_FAMILY","1042100","4176","https://photos.zillowstatic.com/fp/b13d863b604ba523ec4a3ce9490dfc33-p_e.jpg"
"247 Fallbrook Ave, Thousand Oaks, CA 91320","91320","Thousand Oaks","CA","1160000","5","4","2392","484.95","7017.516","sqft","7/24/2024","1721804400000","https://zillow.com/homedetails/247-Fallbrook-Ave-Thousand-Oaks-CA-91320/16471772_zpid/","34.172997","-118.956245","SINGLE_FAMILY","1162400","4506","https://photos.zillowstatic.com/fp/105fccc37b35305a9177af127ce40019-p_e.jpg"
"122 Pepper Rd, Thousand Oaks, CA 91320","91320","Thousand Oaks","CA","769000","3","2","1158","664.08","5200","sqft","7/24/2024","1721804400000","https://zillow.com/homedetails/122-Pepper-Rd-Thousand-Oaks-CA-91320/16478045_zpid/","34.176346","-118.90948","SINGLE_FAMILY","770600","3673","https://photos.zillowstatic.com/fp/029755c330e64d04f1e4d53b2fbac1a6-p_e.jpg"
"741 Calle Cardo, Thousand Oaks, CA 91360","91360","Thousand Oaks","CA","850000","4","2","1364","623.17","0.2818411386593205","acres","7/24/2024","1721804400000","https://zillow.com/homedetails/741-Calle-Cardo-Thousand-Oaks-CA-91360/16480623_zpid/","34.21153","-118.86628","SINGLE_FAMILY","851700","4304","https://photos.zillowstatic.com/fp/d6289d1afbc06a96254467ee358f88f0-p_e.jpg"
"2118 Sapra St, Thousand Oaks, CA 91362","91362","Thousand Oaks","CA","1204500","4","4","2381","505.88","0.3271349862258953","acres","7/24/2024","1721804400000","https://zillow.com/homedetails/2118-Sapra-St-Thousand-Oaks-CA-91362/16483127_zpid/","34.19895","-118.84016","SINGLE_FAMILY","1207000","5820","https://photos.zillowstatic.com/fp/b127a5e74558ab84f7e126e468809cca-p_e.jpg"
"1529 Falling Star Ave, Westlake Village, CA 91362","91362","Westlake Village","CA","2900000","5","5","4888","593.29","0.47176308539944906","acres","7/24/2024","1721804400000","https://zillow.com/homedetails/1529-Falling-Star-Ave-Westlake-Village-CA-91362/16487771_zpid/","34.1916","-118.78628","SINGLE_FAMILY","","12617","https://photos.zillowstatic.com/fp/a7de4626e35e1648f1d531d7faf6d450-p_e.jpg"
"2906 Rob Ct, Thousand Oaks, CA 91362","91362","Thousand Oaks","CA","1295000","4","3","2429","533.14","0.2699954086317723","acres","7/23/2024","1721718000000","https://zillow.com/homedetails/2906-Rob-Ct-Thousand-Oaks-CA-91362/16432201_zpid/","34.218586","-118.83906","SINGLE_FAMILY","1297700","5732","https://photos.zillowstatic.com/fp/4744dbb2634e209a93318ab5ebf2c63d-p_e.jpg"
"3577 Radcliffe Rd, Thousand Oaks, CA 91360","91360","Thousand Oaks","CA","1222000","4","4","2597","470.54","0.2553719008264463","acres","7/23/2024","1721718000000","https://zillow.com/homedetails/3577-Radcliffe-Rd-Thousand-Oaks-CA-91360/16479618_zpid/","34.227478","-118.85723","SINGLE_FAMILY","1224600","6502","https://photos.zillowstatic.com/fp/ca7b7be5bb0c4e26fcb1cba43ec9765a-p_e.jpg"
"1091 Bart Cir, Thousand Oaks, CA 91360","91360","Thousand Oaks","CA","1162000","5","3","2678","433.91","9402","sqft","7/19/2024","1721372400000","https://zillow.com/homedetails/1091-Bart-Cir-Thousand-Oaks-CA-91360/16426288_zpid/","34.19292","-118.876816","SINGLE_FAMILY","1164600","6696","https://photos.zillowstatic.com/fp/faab7046c230d9546c9a9e13bce2a8d7-p_e.jpg"
"4304 Forest Oaks Dr, Thousand Oaks, CA 91360","91360","Thousand Oaks","CA","975000","3","2","1682","579.67","6570","sqft","7/19/2024","1721372400000","https://zillow.com/homedetails/4304-Forest-Oaks-Dr-Thousand-Oaks-CA-91360/16436330_zpid/","34.238144","-118.8457","SINGLE_FAMILY","977200","4378","https://photos.zillowstatic.com/fp/40444079fc5dc49d6740a6c7c8e1c6c4-p_e.jpg"
"364 S Longwood Ct, Thousand Oaks, CA 91320","91320","Thousand Oaks","CA","989000","3","2","1203","822.11","7116","sqft","7/19/2024","1721372400000","https://zillow.com/homedetails/364-S-Longwood-Ct-Thousand-Oaks-CA-91320/16471910_zpid/","34.17297","-118.95985","SINGLE_FAMILY","991200","3621","https://photos.zillowstatic.com/fp/94b604f777d9b57ef0b35ab01d0604bb-p_e.jpg"
"3401 Daniel St, Thousand Oaks, CA 91320","91320","Thousand Oaks","CA","1265000","4","3","2730","463.37","6861","sqft","7/19/2024","1721372400000","https://zillow.com/homedetails/3401-Daniel-St-Thousand-Oaks-CA-91320/16473584_zpid/","34.171673","-118.949","SINGLE_FAMILY","1267800","5343","https://photos.zillowstatic.com/fp/eff8d7ff8696802a056c2e03229a02cc-p_e.jpg"
"2484 E Hillcrest Dr, Thousand Oaks, CA 91362","91362","Thousand Oaks","CA","790000","2","3","1300","607.69","5045","sqft","7/19/2024","1721372400000","https://zillow.com/homedetails/2484-E-Hillcrest-Dr-Thousand-Oaks-CA-91362/16477389_zpid/","34.176373","-118.839","SINGLE_FAMILY","791800","3452","https://photos.zillowstatic.com/fp/fd2766e9a4f60a2a0ec6adf59437c4cd-p_e.jpg"
"1321 Calle Pimiento, Thousand Oaks, CA 91360","91360","Thousand Oaks","CA","825000","3","2","1300","634.62","0.2502295684113866","acres","7/19/2024","1721372400000","https://zillow.com/homedetails/1321-Calle-Pimiento-Thousand-Oaks-CA-91360/16479983_zpid/","34.21602","-118.85591","SINGLE_FAMILY","829300","3858","https://photos.zillowstatic.com/fp/7bef5c9b466bf21cb66a329c0a66399a-p_e.jpg"
"3258 N Allegheny Ct, Thousand Oaks, CA 91362","91362","Thousand Oaks","CA","1575000","6","5","3610","436.29","7400","sqft","7/19/2024","1721372400000","https://zillow.com/homedetails/3258-N-Allegheny-Ct-Thousand-Oaks-CA-91362/16484132_zpid/","34.16946","-118.82936","SINGLE_FAMILY","1578500","9750","https://photos.zillowstatic.com/fp/6b6b722ccc7b8edc0988b9f22efe0132-p_e.jpg"
"4963 Summit View Dr, Thousand Oaks, CA 91362","91362","Thousand Oaks","CA","6975000","5","7","8783","794.15","1.15","acres","7/19/2024","1721372400000","https://zillow.com/homedetails/4963-Summit-View-Dr-Thousand-Oaks-CA-91362/16484389_zpid/","34.18021","-118.80388","SINGLE_FAMILY","6990600","26954","https://photos.zillowstatic.com/fp/b805644e902101de46866bbf4e889f08-p_e.jpg"
"935 Newbury Rd, Thousand Oaks, CA 91320","91320","Thousand Oaks","CA","1152000","4","2","2088","551.72","9496.08","sqft","7/19/2024","1721372400000","https://zillow.com/homedetails/935-Newbury-Rd-Thousand-Oaks-CA-91320/16485900_zpid/","34.18207","-118.9015","SINGLE_FAMILY","1154600","4377","https://photos.zillowstatic.com/fp/27fedaf365656947e35b9c9762be140e-p_e.jpg"
"3258 Allegheny Ct, Westlake Village, CA 91362","91362","Westlake Village","CA","1575000","6","5","3310","475.83","7400","sqft","7/19/2024","1721372400000","https://zillow.com/homedetails/3258-Allegheny-Ct-Westlake-Village-CA-91362/2067239788_zpid/","34.16951","-118.82966","SINGLE_FAMILY","1578500","9188","https://photos.zillowstatic.com/fp/32d7def4cba25e29a617327b4fa47e18-p_e.jpg"
"2651 Sirius St, Thousand Oaks, CA 91360","91360","Thousand Oaks","CA","965000","3","2","2229","432.93","0.5601469237832875","acres","7/18/2024","1721286000000","https://zillow.com/homedetails/2651-Sirius-St-Thousand-Oaks-CA-91360/16423540_zpid/","34.215954","-118.876076","SINGLE_FAMILY","967200","5535","https://photos.zillowstatic.com/fp/0ad45f7de8b2c0468f7417248a72c531-p_e.jpg"
"4052 Avenida Verano, Thousand Oaks, CA 91360","91360","Thousand Oaks","CA","1338000","4","3","2878","464.91","9325","sqft","7/18/2024","1721286000000","https://zillow.com/homedetails/4052-Avenida-Verano-Thousand-Oaks-CA-91360/16436253_zpid/","34.23414","-118.85429","SINGLE_FAMILY","1345100","5694","https://photos.zillowstatic.com/fp/d6ea9d57460c65c264a94cffc67d79f5-p_e.jpg"
"1818 La Granada Dr, Thousand Oaks, CA 91362","91362","Thousand Oaks","CA","1075000","3","2","1633","658.3","10148","sqft","7/18/2024","1721286000000","https://zillow.com/homedetails/1818-La-Granada-Dr-Thousand-Oaks-CA-91362/16482965_zpid/","34.19441","-118.84493","SINGLE_FAMILY","1080700","4493","https://photos.zillowstatic.com/fp/5fabde297d46036e0832653895e4aa3c-p_e.jpg"
"2444 Rikkard Dr, Thousand Oaks, CA 91362","91362","Thousand Oaks","CA","1255900","4","3","2180","576.1","7841","sqft","7/17/2024","1721199600000","https://zillow.com/homedetails/2444-Rikkard-Dr-Thousand-Oaks-CA-91362/16432793_zpid/","34.21286","-118.83696","SINGLE_FAMILY","1262700","5232","https://photos.zillowstatic.com/fp/040d8831d1aef38a14ebcdc22282bf20-p_e.jpg"
"3044 Felton St, Thousand Oaks, CA 91320","91320","Thousand Oaks","CA","825000","3","2","1046","788.72","7011","sqft","7/17/2024","1721199600000","https://zillow.com/homedetails/3044-Felton-St-Thousand-Oaks-CA-91320/16469605_zpid/","34.166183","-118.941124","SINGLE_FAMILY","829400","3598","https://photos.zillowstatic.com/fp/c17443f9618eedf18089637e75ffddb7-p_e.jpg"
"1456 Sappanwood Ave, Thousand Oaks, CA 91320","91320","Thousand Oaks","CA","1190000","5","3","2355","505.31","5471.136","sqft","7/17/2024","1721199600000","https://zillow.com/homedetails/1456-Sappanwood-Ave-Thousand-Oaks-CA-91320/16474549_zpid/","34.198643","-118.91985","SINGLE_FAMILY","1196400","5200","https://photos.zillowstatic.com/fp/76b993b8b6559785a835081e1a40bea0-p_e.jpg"
"636 N Wendy Dr, Thousand Oaks, CA 91320","91320","Thousand Oaks","CA","820000","3","3","1577","519.97","9725","sqft","7/17/2024","1721199600000","https://zillow.com/homedetails/636-N-Wendy-Dr-Thousand-Oaks-CA-91320/16475283_zpid/","34.18671","-118.94352","SINGLE_FAMILY","824400","4009","https://photos.zillowstatic.com/fp/2d85446483d0b71243459f66b6b815e4-p_e.jpg"
"883 Irving Dr, Thousand Oaks, CA 91360","91360","Thousand Oaks","CA","740000","3","2","1344","550.6","4791","sqft","7/17/2024","1721199600000","https://zillow.com/homedetails/883-Irving-Dr-Thousand-Oaks-CA-91360/16476381_zpid/","34.181118","-118.862175","SINGLE_FAMILY","838500","3954","https://photos.zillowstatic.com/fp/7f24441fea7ac0e33b4a76efdfe16541-p_e.jpg"
"190 W Columbia Rd, Thousand Oaks, CA 91360","91360","Thousand Oaks","CA","1125000","5","3","1994","564.19","0.3122359963269054","acres","7/16/2024","1721113200000","https://zillow.com/homedetails/190-W-Columbia-Rd-Thousand-Oaks-CA-91360/16425016_zpid/","34.203323","-118.87229","SINGLE_FAMILY","1131100","5803","https://photos.zillowstatic.com/fp/a00a97e0ea7e3af8514c628277bd8673-p_e.jpg"
"980 Camino Flores, Thousand Oaks, CA 91360","91360","Thousand Oaks","CA","1699000","4","3","3041","558.7","0.45817263544536274","acres","7/16/2024","1721113200000","https://zillow.com/homedetails/980-Camino-Flores-Thousand-Oaks-CA-91360/16470661_zpid/","34.194527","-118.89847","SINGLE_FAMILY","1708200","7207","https://photos.zillowstatic.com/fp/4c97036a9528d727aa2bd5ea630fce0c-p_e.jpg"
"482 Calle Arroyo, Thousand Oaks, CA 91360","91360","Thousand Oaks","CA","1250000","3","2","1758","711.04","1.12","acres","7/16/2024","1721113200000","https://zillow.com/homedetails/482-Calle-Arroyo-Thousand-Oaks-CA-91360/16470713_zpid/","34.18655","-118.89748","SINGLE_FAMILY","1256800","4734","https://photos.zillowstatic.com/fp/80feb7fe0e14992bfeab6e1d190f5d21-p_e.jpg"
"84 W Avenida De Las Flores, Thousand Oaks, CA 91360","91360","Thousand Oaks","CA","903000","3","2","1626","555.35","8600","sqft","7/16/2024","1721113200000","https://zillow.com/homedetails/84-W-Avenida-De-Las-Flores-Thousand-Oaks-CA-91360/351489636_zpid/","34.21216","-118.87724","SINGLE_FAMILY","905100","4477","https://photos.zillowstatic.com/fp/5410fe951c68cd5aad9dd27bd7c706cd-p_e.jpg"
"284 W Larcom St, Thousand Oaks, CA 91360","91360","Thousand Oaks","CA","979999","4","3","2136","458.8","7078","sqft","7/15/2024","1721026800000","https://zillow.com/homedetails/284-W-Larcom-St-Thousand-Oaks-CA-91360/16423742_zpid/","34.216396","-118.883644","SINGLE_FAMILY","985400","5218","https://photos.zillowstatic.com/fp/966924c04beac438be9d264bdf4dbbf0-p_e.jpg"
"5277 Via Andrea, Newbury Park, CA 91320","91320","Newbury Park","CA","2910000","5","5","4742","613.67","0.6007575757575757","acres","7/12/2024","1720767600000","https://zillow.com/homedetails/5277-Via-Andrea-Newbury-Park-CA-91320/16412484_zpid/","34.157448","-118.98696","SINGLE_FAMILY","2926600","11072","https://photos.zillowstatic.com/fp/3fb6efbe2f436880c930f1ee78c9576e-p_e.jpg"
"2610 N Velarde Dr, Thousand Oaks, CA 91360","91360","Thousand Oaks","CA","1135000","4","3","2271","499.78","8113","sqft","7/12/2024","1720767600000","https://zillow.com/homedetails/2610-N-Velarde-Dr-Thousand-Oaks-CA-91360/16423004_zpid/","34.215588","-118.89681","SINGLE_FAMILY","1141500","5321","https://photos.zillowstatic.com/fp/c38030dd8f3a541442db872f9b6d8a78-p_e.jpg"
"3535 Indian Ridge Cir, Thousand Oaks, CA 91362","91362","Thousand Oaks","CA","1850000","4","3","3243","570.46","10349","sqft","7/12/2024","1720767600000","https://zillow.com/homedetails/3535-Indian-Ridge-Cir-Thousand-Oaks-CA-91362/16430233_zpid/","34.216515","-118.81064","SINGLE_FAMILY","1860600","7395","https://photos.zillowstatic.com/fp/b3c0609378daee4eb9983547444aaba7-p_e.jpg"
"1848 Cannes Dr, Thousand Oaks, CA 91362","91362","Thousand Oaks","CA","1570000","5","4","3354","468.1","9853","sqft","7/12/2024","1720767600000","https://zillow.com/homedetails/1848-Cannes-Dr-Thousand-Oaks-CA-91362/16432610_zpid/","34.220905","-118.844826","SINGLE_FAMILY","1579100","6900","https://photos.zillowstatic.com/fp/63e42198b5158745e7a05e55097f3a4e-p_e.jpg"
"3438 Trailview Ct, Thousand Oaks, CA 91360","91360","Thousand Oaks","CA","1485000","4","3","2302","645.09","10216","sqft","7/12/2024","1720767600000","https://zillow.com/homedetails/3438-Trailview-Ct-Thousand-Oaks-CA-91360/16479332_zpid/","34.22631","-118.85666","SINGLE_FAMILY","1493500","5694","https://photos.zillowstatic.com/fp/daf0a9b2d3c2d32d9adb0cff6242b07d-p_e.jpg"
"3209 N Blue Ridge Ct, Westlake Village, CA 91362","91362","Westlake Village","CA","1405000","5","3","2637","532.8","7089","sqft","7/12/2024","1720767600000","https://zillow.com/homedetails/3209-N-Blue-Ridge-Ct-Westlake-Village-CA-91362/16484037_zpid/","34.17073","-118.82876","SINGLE_FAMILY","1413000","7181","https://photos.zillowstatic.com/fp/4dbbfa33f59c835bdfbcec20952a4c16-p_e.jpg"
"688 W Velarde Dr, Thousand Oaks, CA 91360","91360","Thousand Oaks","CA","1075000","3","3","1936","555.27","8225","sqft","7/11/2024","1720681200000","https://zillow.com/homedetails/688-W-Velarde-Dr-Thousand-Oaks-CA-91360/16422980_zpid/","34.215195","-118.89542","SINGLE_FAMILY","1081300","4606","https://photos.zillowstatic.com/fp/e86acca937a30c66859991ed598f3692-p_e.jpg"
"1842 Burleson Ave, Thousand Oaks, CA 91360","91360","Thousand Oaks","CA","855000","6","3","2747","311.25","9350","sqft","7/11/2024","1720681200000","https://zillow.com/homedetails/1842-Burleson-Ave-Thousand-Oaks-CA-91360/16425076_zpid/","34.202915","-118.868645","SINGLE_FAMILY","859900","7787","https://photos.zillowstatic.com/fp/150bb608c1fff1547c2057ea584c5ce6-p_e.jpg"
"258 Mesa Ave, Thousand Oaks, CA 91320","91320","Thousand Oaks","CA","1249000","4","2","2016","619.54","8297","sqft","7/11/2024","1720681200000","https://zillow.com/homedetails/258-Mesa-Ave-Thousand-Oaks-CA-91320/16467830_zpid/","34.17376","-118.92248","SINGLE_FAMILY","1256200","4950","https://photos.zillowstatic.com/fp/fc255dc28970152321ceb6bd91d3be58-p_e.jpg"
"229 Mayfield Ct, Thousand Oaks, CA 91320","91320","Thousand Oaks","CA","1105000","3","2","1187","930.92","0.4911386593204775","acres","7/11/2024","1720681200000","https://zillow.com/homedetails/229-Mayfield-Ct-Thousand-Oaks-CA-91320/16472284_zpid/","34.17414","-118.96051","SINGLE_FAMILY","1111400","3685","https://photos.zillowstatic.com/fp/f153c78f08ce93f710fe3d748876d84f-p_e.jpg"
"3014 Eagles Claw Ave, Thousand Oaks, CA 91362","91362","Thousand Oaks","CA","1260000","3","3","2632","478.72","2632","sqft","7/11/2024","1720681200000","https://zillow.com/homedetails/3014-Eagles-Claw-Ave-Thousand-Oaks-CA-91362/54900007_zpid/","34.220383","-118.82412","SINGLE_FAMILY","1267300","5773","https://photos.zillowstatic.com/fp/ed06c7f4bd4558221d5447418c85eac7-p_e.jpg"
"668 Rabbit Creek Ln, Thousand Oaks, CA 91320","91320","Thousand Oaks","CA","1205000","4","3","2301","523.69","0.48032598714416896","acres","7/9/2024","1720508400000","https://zillow.com/homedetails/668-Rabbit-Creek-Ln-Thousand-Oaks-CA-91320/16472607_zpid/","34.16595","-118.96454","SINGLE_FAMILY","1212100","5349","https://photos.zillowstatic.com/fp/f9d24270ca83b3fd64ff7c63e7faef14-p_e.jpg"
"606 Hodencamp Rd, Thousand Oaks, CA 91360","91360","Thousand Oaks","CA","799000","3","2","1339","596.71","6720","sqft","7/9/2024","1720508400000","https://zillow.com/homedetails/606-Hodencamp-Rd-Thousand-Oaks-CA-91360/16475811_zpid/","34.186398","-118.86807","SINGLE_FAMILY","803700","3777","https://photos.zillowstatic.com/fp/7e006b3ec714a77d3406d7253db8fac4-p_e.jpg"
"290 Cherry Hills Ct, Thousand Oaks, CA 91320","91320","Thousand Oaks","CA","1650000","3","3","2270","726.87","9988","sqft","7/9/2024","1720508400000","https://zillow.com/homedetails/290-Cherry-Hills-Ct-Thousand-Oaks-CA-91320/16485857_zpid/","34.178524","-118.89047","SINGLE_FAMILY","1659800","4611","https://photos.zillowstatic.com/fp/ef6d23b4160c78a7dab10e9a0102be0a-p_e.jpg"
"2716 Autumn Ridge Dr, Thousand Oaks, CA 91362","91362","Thousand Oaks","CA","1373000","4","3","2679","512.5","9732","sqft","7/8/2024","1720422000000","https://zillow.com/homedetails/2716-Autumn-Ridge-Dr-Thousand-Oaks-CA-91362/16430271_zpid/","34.21609","-118.81305","SINGLE_FAMILY","1381200","5745","https://photos.zillowstatic.com/fp/91fd29eec77f50428e9be29b85a7b952-p_e.jpg"
"3734 W Holloway St, Thousand Oaks, CA 91320","91320","Thousand Oaks","CA","1050000","4","3","1844","569.41","7256","sqft","7/8/2024","1720422000000","https://zillow.com/homedetails/3734-W-Holloway-St-Thousand-Oaks-CA-91320/16469199_zpid/","34.16393","-118.95353","SINGLE_FAMILY","1073500","4686","https://photos.zillowstatic.com/fp/1b0e8ea70856e6a5d734589b8c0127a8-p_e.jpg"
"572 Lynwood St, Thousand Oaks, CA 91360","91360","Thousand Oaks","CA","1300000","4","2","1957","664.28","0.3641184573002755","acres","7/8/2024","1720422000000","https://zillow.com/homedetails/572-Lynwood-St-Thousand-Oaks-CA-91360/16471383_zpid/","34.202473","-118.89154","SINGLE_FAMILY","1307800","6433","https://photos.zillowstatic.com/fp/1d8177fd3342ae0b7da3ec2ab9c18f0d-p_e.jpg"
"2397 Laurelpark Ct, Thousand Oaks, CA 91362","91362","Thousand Oaks","CA","1150000","4","3","2050","560.98","6620","sqft","7/5/2024","1720162800000","https://zillow.com/homedetails/2397-Laurelpark-Ct-Thousand-Oaks-CA-91362/16430015_zpid/","34.21094","-118.83435","SINGLE_FAMILY","1157200","4975","https://photos.zillowstatic.com/fp/2dd4e9eedb972ed3322c19d3e6261d2d-p_e.jpg"
"1474 Calle De Oro, Thousand Oaks, CA 91360","91360","Thousand Oaks","CA","951000","3","2","1440","660.42","0.25223255280073464","acres","7/3/2024","1719990000000","https://zillow.com/homedetails/1474-Calle-De-Oro-Thousand-Oaks-CA-91360/16436152_zpid/","34.230576","-118.85305","SINGLE_FAMILY","917700","4176","https://photos.zillowstatic.com/fp/3f480239acd58b3a0ea5fb8731f876dc-p_e.jpg"
"953 Valley High Ave, Thousand Oaks, CA 91362","91362","Thousand Oaks","CA","1040000","3","2","1633","636.86","10020","sqft","7/3/2024","1719990000000","https://zillow.com/homedetails/953-Valley-High-Ave-Thousand-Oaks-CA-91362/16482867_zpid/","34.19036","-118.847046","SINGLE_FAMILY","","4750","https://photos.zillowstatic.com/fp/e267c740252e92eba90ee07aaa56dec0-p_e.jpg"
"1000 Lakeview Canyon Rd, Westlake Village, CA 91362","91362","Westlake Village","CA","4600000","4","6","5692","808.15","2.75","acres","7/2/2024","1719903600000","https://zillow.com/homedetails/1000-Lakeview-Canyon-Rd-Westlake-Village-CA-91362/16484255_zpid/","34.180256","-118.80623","SINGLE_FAMILY","4615600","18981","https://photos.zillowstatic.com/fp/3fdf7e46ad4cc5b54552bb6ff9af8ed1-p_e.jpg"
"1103 Country Valley Rd, Thousand Oaks, CA 91362","91362","Thousand Oaks","CA","3950000","5","5","5633","701.22","1.04","acres","7/2/2024","1719903600000","https://zillow.com/homedetails/1103-Country-Valley-Rd-Thousand-Oaks-CA-91362/16484383_zpid/","34.182972","-118.80484","SINGLE_FAMILY","3963400","13199","https://photos.zillowstatic.com/fp/cce786b6a62a69209c651843b737b9a1-p_e.jpg"
"2754 Westham Cir, Thousand Oaks, CA 91362","91362","Thousand Oaks","CA","7500","3","2","1631","4.6","6703","sqft","7/1/2024","1719817200000","https://zillow.com/homedetails/2754-Westham-Cir-Thousand-Oaks-CA-91362/16433109_zpid/","34.216747","-118.83429","SINGLE_FAMILY","1071800","4196","https://photos.zillowstatic.com/fp/fab9ce86e951ea5d5c6cba21f6e492c4-p_e.jpg"
"966 Calle Las Trancas, Thousand Oaks, CA 91360","91360","Thousand Oaks","CA","1899000","4","4","3059","620.79","0.4591368227731864","acres","7/1/2024","1719817200000","https://zillow.com/homedetails/966-Calle-Las-Trancas-Thousand-Oaks-CA-91360/16470636_zpid/","34.194504","-118.899956","SINGLE_FAMILY","1905500","7617","https://photos.zillowstatic.com/fp/de224c1f20c1d82eed982207a1abe0e6-p_e.jpg"
"483 Fallbrook Ave, Thousand Oaks, CA 91320","91320","Thousand Oaks","CA","955000","3","3","1969","485.02","1969","sqft","7/1/2024","1719817200000","https://zillow.com/homedetails/483-Fallbrook-Ave-Thousand-Oaks-CA-91320/16472716_zpid/","34.170727","-118.957855","SINGLE_FAMILY","958300","4059","https://photos.zillowstatic.com/fp/dc87b729047e9569b5fb74fdd847ea99-p_e.jpg"
"1342 Calle Bouganvilla, Thousand Oaks, CA 91360","91360","Thousand Oaks","CA","825500","4","2","1343","614.67","10000","sqft","6/30/2024","1719730800000","https://zillow.com/homedetails/1342-Calle-Bouganvilla-Thousand-Oaks-CA-91360/16480497_zpid/","34.21147","-118.85572","SINGLE_FAMILY","828500","4075","https://photos.zillowstatic.com/fp/ad2e195ea6d4fd2c3211ce715f619aba-p_e.jpg"
"748 Lynnmere Dr, Thousand Oaks, CA 91360","91360","Thousand Oaks","CA","1480000","4","3","2887","512.64","0.4857897153351699","acres","6/28/2024","1719558000000","https://zillow.com/homedetails/748-Lynnmere-Dr-Thousand-Oaks-CA-91360/16429683_zpid/","34.202656","-118.895195","SINGLE_FAMILY","1485500","6658","https://photos.zillowstatic.com/fp/83ce59f1ed4d28b9581d5c4c096feace-p_e.jpg"
"2823 Michael Dr, Thousand Oaks, CA 91320","91320","Thousand Oaks","CA","1035000","3","2","2165","478.06","9638","sqft","6/28/2024","1719558000000","https://zillow.com/homedetails/2823-Michael-Dr-Thousand-Oaks-CA-91320/16470550_zpid/","34.18334","-118.937836","SINGLE_FAMILY","1038900","4748","https://photos.zillowstatic.com/fp/dc7b3ff2fca677869625dfd6e7a499ce-p_e.jpg"
"2884 Crescent Way, Thousand Oaks, CA 91362","91362","Thousand Oaks","CA","650000","2","1","962","675.68","3600","sqft","6/28/2024","1719558000000","https://zillow.com/homedetails/2884-Crescent-Way-Thousand-Oaks-CA-91362/16477545_zpid/","34.170338","-118.83945","SINGLE_FAMILY","652400","3049","https://photos.zillowstatic.com/fp/91cbf4c86c1bdccfdd9a386ce0184ca4-p_e.jpg"
"4128 Valley Spring Dr, Thousand Oaks, CA 91362","91362","Thousand Oaks","CA","2828888","4","3","2994","944.85","20006","acres","6/28/2024","1719558000000","https://zillow.com/homedetails/4128-Valley-Spring-Dr-Thousand-Oaks-CA-91362/16489267_zpid/","34.190098","-118.81881","SINGLE_FAMILY","2839400","6735","https://photos.zillowstatic.com/fp/0d156584f59ed70d703c1148bccc57b9-p_e.jpg"
"1791 Red Robin Pl, Thousand Oaks, CA 91320","91320","Thousand Oaks","CA","1400000","4","4","3133","446.86","8709","sqft","6/28/2024","1719558000000","https://zillow.com/homedetails/1791-Red-Robin-Pl-Thousand-Oaks-CA-91320/52468839_zpid/","34.202663","-118.92073","SINGLE_FAMILY","1405200","5687","https://photos.zillowstatic.com/fp/77575156dadc4c7f186364a0f7f85069-p_e.jpg"
"3511 Indian Ridge Cir, Thousand Oaks, CA 91362","91362","Thousand Oaks","CA","1575000","3","3","2679","587.91","0.38604224058769515","acres","6/27/2024","1719471600000","https://zillow.com/homedetails/3511-Indian-Ridge-Cir-Thousand-Oaks-CA-91362/16430231_zpid/","34.216602","-118.8112","SINGLE_FAMILY","","5801","https://photos.zillowstatic.com/fp/6768e8cdf6406d25bb9b33531f26a4af-p_e.jpg"
"609 Camino Del Sol, Thousand Oaks, CA 91320","91320","Thousand Oaks","CA","1145000","5","3","2539","450.96","5750","acres","6/26/2024","1719385200000","https://zillow.com/homedetails/609-Camino-Del-Sol-Thousand-Oaks-CA-91320/16412814_zpid/","34.167175","-118.97191","SINGLE_FAMILY","1149400","5534","https://photos.zillowstatic.com/fp/10652b49817f1c6907c7f527bc7b6567-p_e.jpg"
"18 N Wendy Dr, Thousand Oaks, CA 91320","91320","Thousand Oaks","CA","1065000","4","3","1883","565.59","8400","sqft","6/26/2024","1719385200000","https://zillow.com/homedetails/18-N-Wendy-Dr-Thousand-Oaks-CA-91320/16472914_zpid/","34.177933","-118.94445","SINGLE_FAMILY","1069100","4398","https://photos.zillowstatic.com/fp/087915f4c5b2077f785bc9ca63201ae6-p_e.jpg"
"1359 El Monte Dr #1, Thousand Oaks, CA 91362","91362","Thousand Oaks","CA","1700000","4","3","2481","685.21","0.5050505050505051","acres","6/26/2024","1719385200000","https://zillow.com/homedetails/1359-El-Monte-Dr-1-Thousand-Oaks-CA-91362/350310357_zpid/","34.197075","-118.8533","SINGLE_FAMILY","1705500","5888","https://photos.zillowstatic.com/fp/89fcdf3f6525d37dc732d7d9537df623-p_e.jpg"
"526 Raindance St, Thousand Oaks, CA 91360","91360","Thousand Oaks","CA","979000","4","3","1900","515.26","8689","sqft","6/25/2024","1719298800000","https://zillow.com/homedetails/526-Raindance-St-Thousand-Oaks-CA-91360/16428885_zpid/","34.22348","-118.89126","SINGLE_FAMILY","982900","4596","https://photos.zillowstatic.com/fp/2c106e17816411427172c70954aa8386-p_e.jpg"
"2847 Sandhurst Ave, Thousand Oaks, CA 91362","91362","Thousand Oaks","CA","5000","4","3","2568","1.95","9583","sqft","6/25/2024","1719298800000","https://zillow.com/homedetails/2847-Sandhurst-Ave-Thousand-Oaks-CA-91362/16433079_zpid/","34.21847","-118.8352","SINGLE_FAMILY","1325900","5647","https://maps.googleapis.com/maps/api/staticmap?mobile=false&sensor=true&maptype=satellite&size=575x242&zoom=17&center=34.21847152709961,-118.83519744873047&key=AIzaSyBJsNQO5ZeG-XAbqqWLKwG08fWITSxg33w&signature=tSU45iz7sDzIokPp3mf4LxjVrxw="
"961 S Riopelle Ct, Thousand Oaks, CA 91320","91320","Thousand Oaks","CA","828000","3","2","1068","775.28","10454","sqft","6/25/2024","1719298800000","https://zillow.com/homedetails/961-S-Riopelle-Ct-Thousand-Oaks-CA-91320/16469313_zpid/","34.16116","-118.95303","SINGLE_FAMILY","831300","3810","https://maps.googleapis.com/maps/api/staticmap?mobile=false&sensor=true&maptype=satellite&size=575x242&zoom=17&center=34.16115951538086,-118.95303344726562&key=AIzaSyBJsNQO5ZeG-XAbqqWLKwG08fWITSxg33w&signature=GERea382i4QwO8dTTrg-Sf3Iw0o="
"477 Jeanne Ct, Thousand Oaks, CA 91320","91320","Thousand Oaks","CA","900000","4","2","1630","552.15","0.2571166207529844","acres","6/25/2024","1719298800000","https://zillow.com/homedetails/477-Jeanne-Ct-Thousand-Oaks-CA-91320/16475096_zpid/","34.182545","-118.94759","SINGLE_FAMILY","903600","4627","https://photos.zillowstatic.com/fp/7b0234c825cb8699f56675c595f57873-p_e.jpg"
"2733 Calle Bienvenido, Thousand Oaks, CA 91360","91360","Thousand Oaks","CA","1100000","4","3","2173","506.21","6140","sqft","6/25/2024","1719298800000","https://zillow.com/homedetails/2733-Calle-Bienvenido-Thousand-Oaks-CA-91360/16481104_zpid/","34.216618","-118.86763","SINGLE_FAMILY","1104300","4864","https://photos.zillowstatic.com/fp/f3b20f4ab19d97c84f64ae9becaeacf4-p_e.jpg"
